mlsId,beds,baths,address,sqFt,parking,taxes,pricePerSqFt,yearBuilt,propertyType,listingDate,listingPrice,lat,lon,addressDetails
R2905475,9,6,"29582 Corvina Crt, Abbotsford, BC, Canada",3958.0,4,4435.0,467.0,2024.0,SingleFamily,14/07/2024,1849000.0,49.0457217,-122.4041816,"Corvina Court, Pepin Brook, Abbotsford, Fraser Valley Regional District, British Columbia, V4X 1J3, Canada"
R2905497,5,2,"2086 Sherwood Cres, Abbotsford, BC, Canada",2592.0,3,4809.0,495.0,1967.0,SingleFamily,14/07/2024,1285000.0,49.03990425,-122.33344480157037,"2086, Sherwood Crescent, South Clearbrook, Abbotsford, Fraser Valley Regional District, British Columbia, V2T 1B8, Canada"
R2905660,3,2,"2825 Gardner Crt, Abbotsford, BC, Canada",1592.0,8,5067.0,722.0,1989.0,SingleFamily,14/07/2024,1149900.0,49.0543612,-122.3661236,"Gardner Court, Abbotsford, Fraser Valley Regional District, British Columbia, V2T 5E4, Canada"
R2905758,6,3,"32171 Ashcroft Dr, Abbotsford, BC, Canada",3428.0,6,5153.0,393.0,1991.0,SingleFamily,14/07/2024,1349700.0,49.0628385,-122.3318707,"Ashcroft Drive, North Clearbrook, Abbotsford, Fraser Valley Regional District, British Columbia, V2T 5C7, Canada"
R2905941,5,2,"41056 Belrose Rd, Abbotsford, BC, Canada",4140.0,20,3091.0,879.0,9999.0,SingleFamily,14/07/2024,3640000.0,49.0491727,-122.0882141,"Belrose Road, Abbotsford, Fraser Valley Regional District, British Columbia, V3G 1T7, Canada"
R2905445,3,2,"2602 Macbeth Cres, Abbotsford, BC, Canada",2060.0,8,4028.0,533.0,1975.0,SingleFamily,14/07/2024,1099000.0,49.0497721,-122.262422,"Macbeth Crescent, Yale Court, Abbotsford, Fraser Valley Regional District, British Columbia, V2S 7S5, Canada"
R2905469,1,1,"3063 Immel St, Abbotsford, BC, Canada",697.0,1,1344.0,516.0,1993.0,Condo,14/07/2024,359900.0,49.0565281,-122.2718415,"Immel Street, Lower Ten Oaks, Abbotsford, Fraser Valley Regional District, British Columbia, V2S 4L3, Canada"
R2904207,4,2,"34632 Acorn Ave, Abbotsford, BC, Canada",1980.0,5,4455.0,530.0,1978.0,SingleFamily,10/07/2024,1050000.0,49.0615829,-122.2657194,"Acorn Avenue, Lower Ten Oaks, Abbotsford, Fraser Valley Regional District, British Columbia, V2S 4H3, Canada"
R2904745,1,2,"33820 S Fraser Way, Abbotsford, BC, Canada",581.0,1,1900.0,739.0,2026.0,Condo,10/07/2024,429700.0,49.0489101,-122.2926614,"South Fraser Way, Abbotsford Centre, Abbotsford, Fraser Valley Regional District, British Columbia, V2S 2B9, Canada"
R2904748,4,2,"34242 Redwood Ave, Abbotsford, BC, Canada",2033.0,9,4482.0,515.0,1977.0,SingleFamily,10/07/2024,1049000.0,49.0535069,-122.2717989,"Redwood Avenue, Abbotsford Centre, Abbotsford, Fraser Valley Regional District, British Columbia, V2S 7E6, Canada"
R2905329,2,2,"32085 George Ferguson Way, Abbotsford, BC, Canada",1115.0,2,1951.0,493.0,1996.0,Condo,10/07/2024,549900.0,49.055247,-122.33535429791668,"32085, George Ferguson Way, Clearbrook, Abbotsford, Fraser Valley Regional District, British Columbia, V2T 2K7, Canada"
R2904825,3,3,"34230 Elmwood Dr, Abbotsford, BC, Canada",2390.0,4,3756.0,407.0,2016.0,Townhouse,10/07/2024,975000.0,49.0603379,-122.2765672,"Elmwood Drive, Abbotsford, Fraser Valley Regional District, British Columbia, V2S 6B2, Canada"
R2903041,5,3,"34085 Higginson Cres, Abbotsford, BC, Canada",3054.0,4,4775.0,425.0,2003.0,SingleFamily,10/07/2024,1299000.0,49.0323893,-122.2796669,"34085, Higginson Crescent, UDistrict, Abbotsford, Fraser Valley Regional District, British Columbia, V2S 7M5, Canada"
R2905047,5,3,"2761 Aquila Dr, Abbotsford, BC, Canada",3718.0,6,6665.0,537.0,2020.0,SingleFamily,10/07/2024,1999900.0,49.0520022,-122.2371017,"Aquila Drive, Lower Sumas Mountain, Abbotsford, Fraser Valley Regional District, British Columbia, V3G 0C8, Canada"
R2903917,3,1,"2537 Stanley St, Abbotsford, BC, Canada",2060.0,0,4043.0,576.0,1966.0,SingleFamily,10/07/2024,1188000.0,49.0482621,-122.3452862,"2537, Stanley Street, Abbotsford, Fraser Valley Regional District, British Columbia, V2T 2R3, Canada"
R2904213,2,1,"2279 Mccallum Rd, Abbotsford, BC, Canada",993.0,1,1005.0,320.0,1982.0,Condo,09/07/2024,318000.0,49.04346155,-122.29440169758468,"2279, McCallum Road, McCallum, Mill Lake, Abbotsford, Fraser Valley Regional District, British Columbia, V2S 3N7, Canada"
R2904954,2,2,"2772 Clearbrook Rd, Abbotsford, BC, Canada",1310.0,1,1650.0,438.0,1995.0,Condo,09/07/2024,575000.0,49.0364681,-122.3376371,"Clearbrook Road, North Poplar, Abbotsford, Fraser Valley Regional District, British Columbia, V2T 5X4, Canada"
R2904473,2,2,"31406 Upper Maclure Rd, Abbotsford, BC, Canada",1450.0,2,2100.0,413.0,1994.0,Townhouse,09/07/2024,599900.0,49.0603131,-122.3525121,"Upper Maclure Road, Townline Hill, Abbotsford, Fraser Valley Regional District, British Columbia, V2T 5S6, Canada"
R2902945,4,2,"3347 Omineca Crt, Abbotsford, BC, Canada",2169.0,5,4126.0,506.0,1978.0,SingleFamily,09/07/2024,1099000.0,49.0624884,-122.2448265,"Omineca Court, Upper Ten Oaks, Abbotsford, Fraser Valley Regional District, British Columbia, V2S 8M1, Canada"
R2903550,2,2,"2799 Allwood St, Abbotsford, BC, Canada",1140.0,2,2471.0,587.0,2020.0,Townhouse,09/07/2024,669900.0,49.0531988,-122.3201097,"2799, Allwood Street, City Centre, Abbotsford, Fraser Valley Regional District, British Columbia, V2T 3S1, Canada"
R2904119,2,2,"33731 Marshall Rd, Abbotsford, BC, Canada",1044.0,1,1415.0,407.0,1994.0,Condo,09/07/2024,425000.0,49.0382369,-122.2739641,"Marshall Road, Abbotsford Centre, Abbotsford, Fraser Valley Regional District, British Columbia, V2S 6Y3, Canada"
R2904516,4,2,"34586 Pearl Ave, Abbotsford, BC, Canada",1642.0,6,3962.0,721.0,1986.0,SingleFamily,09/07/2024,1185000.0,49.0551206,-122.2662632,"Pearl Avenue, Abbotsford, Fraser Valley Regional District, British Columbia, V2S 4H3, Canada"
R2903557,3,1,"3082 Todd Crt, Abbotsford, BC, Canada",1309.0,4,3842.0,725.0,1976.0,SingleFamily,08/07/2024,949900.0,49.0581127,-122.2522225,"Todd Court, Vicarro Ranch, Abbotsford, Fraser Valley Regional District, British Columbia, V2S 7L7, Canada"
R2903768,4,3,"3284 Saddle St, Abbotsford, BC, Canada",2429.0,8,4446.0,480.0,1993.0,SingleFamily,08/07/2024,1168000.0,49.0614879,-122.2682621,"Saddle Street, Lower Ten Oaks, Abbotsford, Fraser Valley Regional District, British Columbia, V2S 4H3, Canada"
R2904157,2,1,"1755 Salton Rd, Abbotsford, BC, Canada",944.0,1,1541.0,423.0,1990.0,Condo,08/07/2024,399900.0,49.0360931,-122.2876542,"Salton Road, McCallum, Abbotsford Centre, Abbotsford, Fraser Valley Regional District, British Columbia, V2S 3W6, Canada"
R2903875,7,4,"3775 Lethbridge Dr, Abbotsford, BC, Canada",3828.0,6,5219.0,339.0,1992.0,SingleFamily,08/07/2024,1299000.0,49.0701837,-122.2443721,"Lethbridge Drive, Upper Ten Oaks, Abbotsford, Fraser Valley Regional District, British Columbia, V3G 3B1, Canada"
R2903011,3,2,"36060 Old Yale Rd, Abbotsford, BC, Canada",1492.0,2,2658.0,459.0,1991.0,Townhouse,08/07/2024,685000.0,49.0415957,-122.2255657,"36060, Old Yale Road, Abbotsford, Fraser Valley Regional District, British Columbia, V3G 1Y8, Canada"
R2902680,3,2,"31548 Upper Maclure Rd, Abbotsford, BC, Canada",1874.0,3,3228.0,490.0,2019.0,Townhouse,08/07/2024,918888.0,49.0603131,-122.3525121,"Upper Maclure Road, Townline Hill, Abbotsford, Fraser Valley Regional District, British Columbia, V2T 5S6, Canada"
R2903820,4,4,"36020 Spyglass Crt, Abbotsford, BC, Canada",4357.0,12,6419.0,367.0,1999.0,SingleFamily,08/07/2024,1600000.0,49.0507519,-122.2268205,"Spyglass Court, Lower Sumas Mountain, Abbotsford, Fraser Valley Regional District, British Columbia, V3G 2J3, Canada"
R2902894,3,2,"3457 Whatcom Rd, Abbotsford, BC, Canada",2574.0,4,4347.0,561.0,2010.0,SingleFamily,07/07/2024,1445000.0,49.0384194,-122.2193524,"Whatcom Road, Abbotsford, Fraser Valley Regional District, British Columbia, V3G 2K4, Canada"
R2905146,2,1,"32040 Tims Ave, Abbotsford, BC, Canada",1129.0,1,657.0,291.0,1980.0,Condo,07/07/2024,329000.0,49.0539612,-122.3335351,"Tims Avenue, Clearbrook, Abbotsford, Fraser Valley Regional District, British Columbia, V2T 2H3, Canada"
R2902952,3,1,"28989 Marsh Mccormick Rd, Abbotsford, BC, Canada",1943.0,0,10302.0,1903.0,1963.0,SingleFamily,07/07/2024,3699000.0,49.1477829,-122.4158145,"Marsh-McCormick Road, Abbotsford, Fraser Valley Regional District, British Columbia, V4S 1H7, Canada"
R2902863,5,3,"34655 Baldwin Rd, Abbotsford, BC, Canada",2971.0,4,4457.0,420.0,1991.0,SingleFamily,07/07/2024,1249800.0,49.0522786,-122.2637325,"Baldwin Road, Yale Court, Abbotsford, Fraser Valley Regional District, British Columbia, V2S 7S5, Canada"
R2904333,2,1,"31955 Old Yale Rd, Abbotsford, BC, Canada",1038.0,1,1172.0,418.0,1981.0,Condo,07/07/2024,434900.0,49.0522093,-122.3390107,"31955, Old Yale Road, Clearbrook, Abbotsford, Fraser Valley Regional District, British Columbia, V2T 4N1, Canada"
R2904985,4,2,"1559 Whatcom Rd, Abbotsford, BC, Canada",2665.0,10,6052.0,581.0,1977.0,SingleFamily,07/07/2024,1549900.0,49.0308313,-122.2194431,"1559, Whatcom Road, Abbotsford, Fraser Valley Regional District, British Columbia, V3G 2K4, Canada"
R2902529,3,2,"32097 Tims Ave, Abbotsford, BC, Canada",1366.0,1,1244.0,343.0,1981.0,Condo,07/07/2024,469900.0,49.05421805,-122.33508182982663,"32097, Tims Avenue, Clearbrook, Abbotsford, Fraser Valley Regional District, British Columbia, V2T 2H3, Canada"
R2902928,5,2,"35331 Sandy Hill Rd, Abbotsford, BC, Canada",2323.0,4,4363.0,430.0,1990.0,SingleFamily,07/07/2024,999995.0,49.0681729,-122.2451125,"Sandy Hill Road, Upper Ten Oaks, Abbotsford, Fraser Valley Regional District, British Columbia, V2S 8M1, Canada"
R2901701,1,1,"33545 Rainbow Ave, Abbotsford, BC, Canada",692.0,1,1519.0,592.0,2007.0,Condo,04/07/2024,409900.0,49.0372755,-122.29475570135386,"33545, Rainbow Avenue, Mill Lake, Abbotsford, Fraser Valley Regional District, British Columbia, V2S 0B9, Canada"
R2902150,2,2,"1975 Mccallum Rd, Abbotsford, BC, Canada",879.0,2,1806.0,602.0,2009.0,Condo,04/07/2024,529900.0,49.0381306,-122.2936557,"Back in Motion Physiotherapy, 1975, McCallum Road, McCallum, Mill Lake, Abbotsford, Fraser Valley Regional District, British Columbia, V2S 3N3, Canada"
R2903282,5,3,"34613 Quarry Ave, Abbotsford, BC, Canada",2585.0,4,4713.0,483.0,1999.0,SingleFamily,04/07/2024,1249000.0,49.0530695,-122.2675003,"Quarry Avenue, Yale Court, Abbotsford, Fraser Valley Regional District, British Columbia, V2S 4H3, Canada"
R2905172,3,2,"35215 Mckee Rd, Abbotsford, BC, Canada",2158.0,0,4270.0,532.0,1981.0,SingleFamily,04/07/2024,1150000.0,49.065393,-122.2432137,"McKee Road, Upper Ten Oaks, Abbotsford, Fraser Valley Regional District, British Columbia, V3G 3B1, Canada"
R2902165,3,2,"32917 Amicus Pl, Abbotsford, BC, Canada",2194.0,2,2294.0,307.0,1982.0,Townhouse,04/07/2024,674900.0,49.0535685,-122.3111558,"Amicus Place, City Centre, Abbotsford, Fraser Valley Regional District, British Columbia, V2S 6G9, Canada"
R2901564,3,2,"34248 King Rd, Abbotsford, BC, Canada",1414.0,3,2728.0,509.0,2009.0,Townhouse,04/07/2024,719900.0,49.0308236,-122.3266547,"King Road, North Poplar, Abbotsford, Fraser Valley Regional District, British Columbia, V2T 5Z5, Canada"
R2900852,4,2,"2666 Stewart Cres, Abbotsford, BC, Canada",1919.0,8,4697.0,573.0,1975.0,SingleFamily,02/07/2024,1099900.0,49.0499795,-122.2735494,"Stewart Crescent, Abbotsford Centre, Abbotsford, Fraser Valley Regional District, British Columbia, V2S 8G9, Canada"
R2900626,3,3,"35625 Page Rd, Abbotsford, BC, Canada",2205.0,10,3818.0,1133.0,2010.0,SingleFamily,02/07/2024,2499900.0,49.1205646,-122.2958685,"Page Road, Riverside, Abbotsford, Fraser Valley Regional District, British Columbia, V4X 1T9, Canada"
R2901056,1,1,"2565 Campbell Ave, Abbotsford, BC, Canada",626.0,1,1543.0,670.0,2016.0,Condo,02/07/2024,419700.0,49.0475622,-122.2825854,"Campbell Avenue, Abbotsford Centre, Abbotsford, Fraser Valley Regional District, British Columbia, V2S 2K1, Canada"
R2901102,2,1,"2055 Mckenzie Rd, Abbotsford, BC, Canada",900.0,6,4206.0,1111.0,1960.0,SingleFamily,02/07/2024,999900.0,49.0394705,-122.28266759840676,"2055, McKenzie Road, McCallum, Abbotsford Centre, Abbotsford, Fraser Valley Regional District, British Columbia, V2S 3Z6, Canada"
R2901141,2,1,"1909 Salton Rd, Abbotsford, BC, Canada",925.0,2,755.0,335.0,1975.0,Condo,02/07/2024,309900.0,49.0360931,-122.2876542,"Salton Road, McCallum, Abbotsford Centre, Abbotsford, Fraser Valley Regional District, British Columbia, V2S 3W6, Canada"
R2901156,3,1,"1909 Salton Rd, Abbotsford, BC, Canada",1134.0,2,1469.0,290.0,1975.0,Condo,02/07/2024,329900.0,49.0360931,-122.2876542,"Salton Road, McCallum, Abbotsford Centre, Abbotsford, Fraser Valley Regional District, British Columbia, V2S 3W6, Canada"
R2901939,1,1,"30515 Cardinal Ave, Abbotsford, BC, Canada",532.0,1,1245.0,714.0,2009.0,Condo,02/07/2024,380000.0,49.06214845,-122.3794356336891,"Tamarind Westside Phase 1, 30515, Cardinal Avenue, Abbotsford, Fraser Valley Regional District, British Columbia, V2T 0A8, Canada"
R2900363,3,2,"30930 Westridge Pl, Abbotsford, BC, Canada",1335.0,2,2866.0,591.0,2019.0,Townhouse,01/07/2024,789000.0,49.0685579,-122.3632969,"Westridge Place, Westerleigh, Abbotsford, Fraser Valley Regional District, British Columbia, V2T 0G6, Canada"
R2900498,4,2,"2284 Midas St, Abbotsford, BC, Canada",1895.0,6,3810.0,554.0,1974.0,SingleFamily,01/07/2024,1049900.0,49.0449475,-122.2700536,"Midas Street, Yale Court, McMillan, Abbotsford, Fraser Valley Regional District, British Columbia, V2S 8G2, Canada"
R2900517,3,2,"32436 Cordova Ave, Abbotsford, BC, Canada",1871.0,6,4767.0,602.0,1977.0,SingleFamily,01/07/2024,1127700.0,49.0372676,-122.32549852136952,"32436, Cordova Avenue, South Clearbrook, Abbotsford, Fraser Valley Regional District, British Columbia, V2T 3Y7, Canada"
R2900252,3,2,"3274 Goldstream Dr, Abbotsford, BC, Canada",1514.0,5,5213.0,653.0,2003.0,SingleFamily,01/07/2024,989000.0,49.061669,-122.2394856,"Goldstream Drive, Highlands, Abbotsford, Fraser Valley Regional District, British Columbia, V3G 2Y6, Canada"
R2900474,2,2,"30930 Westridge Pl, Abbotsford, BC, Canada",1280.0,2,2204.0,584.0,2020.0,Townhouse,01/07/2024,748000.0,49.0685579,-122.3632969,"Westridge Place, Westerleigh, Abbotsford, Fraser Valley Regional District, British Columbia, V2T 0G6, Canada"
R2901207,3,2,"33922 King Rd, Abbotsford, BC, Canada",2034.0,2,2457.0,373.0,1988.0,Townhouse,01/07/2024,759900.0,49.0308236,-122.3266547,"King Road, North Poplar, Abbotsford, Fraser Valley Regional District, British Columbia, V2T 5Z5, Canada"
R2900815,2,1,"34909 Old Yale Rd, Abbotsford, BC, Canada",928.0,2,1579.0,484.0,1980.0,Townhouse,01/07/2024,449880.0,49.0118384,-122.1345217,"Old Yale Road, Abbotsford, Fraser Valley Regional District, British Columbia, V3G 1T7, Canada"
R2902079,3,2,"27735 Roundhouse Dr, Abbotsford, BC, Canada",1366.0,3,2774.0,574.0,2019.0,Townhouse,30/06/2024,785000.0,49.0566354,-122.4540125,"Roundhouse Drive, West Abbotsford, Abbotsford, Fraser Valley Regional District, British Columbia, V4X 2S8, Canada"
R2898311,1,1,"2211 Clearbrook Rd, Abbotsford, BC, Canada",661.0,1,934.0,423.0,1974.0,Condo,27/06/2024,280000.0,49.0423836,-122.3377463419194,"2211, Clearbrook Road, South Clearbrook, Abbotsford, Fraser Valley Regional District, British Columbia, V2T 2X4, Canada"
R2901196,2,2,"31158 Westridge Pl, Abbotsford, BC, Canada",883.0,2,2048.0,667.0,2021.0,Condo,30/06/2024,589000.0,49.0685579,-122.3632969,"Westridge Place, Westerleigh, Abbotsford, Fraser Valley Regional District, British Columbia, V2T 0G6, Canada"
R2899852,5,3,"31481 Southern Dr, Abbotsford, BC, Canada",3613.0,6,5036.0,387.0,1996.0,SingleFamily,27/06/2024,1399900.0,49.0571634,-122.3653252,"Southern Drive, Abbotsford, Fraser Valley Regional District, British Columbia, V2T 6X5, Canada"
R2900636,3,2,"2565 Campbell Ave, Abbotsford, BC, Canada",1052.0,2,2297.0,560.0,2014.0,Condo,27/06/2024,589900.0,49.0475622,-122.2825854,"Campbell Avenue, Abbotsford Centre, Abbotsford, Fraser Valley Regional District, British Columbia, V2S 2K1, Canada"
R2891167,4,3,"33580 Huggins Ave, Abbotsford, BC, Canada",1825.0,2,2843.0,575.0,2024.0,MultiFamily,27/06/2024,1050000.0,49.0523538,-122.2971927,"Huggins Avenue, Historic Downtown Abbotsford, Abbotsford, Fraser Valley Regional District, British Columbia, V2S 2R9, Canada"
R2899347,2,2,"2626 Countess St, Abbotsford, BC, Canada",1105.0,1,1518.0,407.0,1993.0,Condo,25/06/2024,449900.0,49.0499662,-122.3399692,"2626, Countess Street, Clearbrook, Abbotsford, Fraser Valley Regional District, British Columbia, V2T 5P3, Canada"
R2899381,4,3,"32076 Ashcroft Dr, Abbotsford, BC, Canada",2839.0,2,4911.0,422.0,1984.0,SingleFamily,25/06/2024,1199888.0,49.0634919,-122.3362259,"32076, Ashcroft Drive, North Clearbrook, Abbotsford, Fraser Valley Regional District, British Columbia, V2T 5C3, Canada"
R2898460,3,2,"35873 Timberlane Dr, Abbotsford, BC, Canada",2340.0,4,4226.0,572.0,2021.0,SingleFamily,25/06/2024,1338800.0,49.0419146,-122.230193,"Timberlane Drive, Abbotsford, Fraser Valley Regional District, British Columbia, V3G 1E6, Canada"
R2895861,4,3,"3711 Qualicum St, Abbotsford, BC, Canada",3630.0,6,4948.0,385.0,1985.0,SingleFamily,25/06/2024,1399900.0,49.0693745,-122.3226013,"3711, Qualicum Street, North Clearbrook, Abbotsford, Fraser Valley Regional District, British Columbia, V2T 5A5, Canada"
R2898977,3,2,"2894 Willband St, Abbotsford, BC, Canada",1590.0,3,3908.0,559.0,1979.0,SingleFamily,25/06/2024,889000.0,49.0545005,-122.3010465,"2894, Willband Street, Abbotsford, Fraser Valley Regional District, British Columbia, V2S 5V7, Canada"
R2899529,3,2,"35626 Mckee Rd, Abbotsford, BC, Canada",1935.0,2,3259.0,439.0,2009.0,Townhouse,25/06/2024,849900.0,49.0791653,-122.2127651,"McKee Road, Straiton, Abbotsford, Fraser Valley Regional District, British Columbia, V3G 0A4, Canada"
R2899459,6,3,"2607 Blackham Dr, Abbotsford, BC, Canada",3004.0,6,4957.0,449.0,1995.0,SingleFamily,25/06/2024,1349999.0,49.0514511,-122.2674542,"Blackham Drive, Yale Court, Abbotsford, Fraser Valley Regional District, British Columbia, V2S 8G9, Canada"
R2898586,2,2,"1514 Mccallum Rd, Abbotsford, BC, Canada",892.0,1,1899.0,700.0,2022.0,Condo,24/06/2024,625000.0,49.0301721,-122.29256472348604,"1514, McCallum Road, UDistrict, Abbotsford, Fraser Valley Regional District, British Columbia, V2S 0K7, Canada"
R2898695,1,1,"2515 Park Dr, Abbotsford, BC, Canada",603.0,1,1374.0,610.0,2007.0,Condo,24/06/2024,368000.0,49.049682,-122.2810001,"Park Drive, Abbotsford Centre, Abbotsford, Fraser Valley Regional District, British Columbia, V2S 2K1, Canada"
R2893299,2,2,"2180 Gladwin Rd, Abbotsford, BC, Canada",895.0,2,3188.0,893.0,2018.0,Condo,23/06/2024,799900.0,49.04150345,-122.3149655554006,"2180, Gladwin Road, Marshall, Mill Lake, Abbotsford, Fraser Valley Regional District, British Columbia, V2S 0H4, Canada"
R2898401,6,3,"31600 Old Yale Rd, Abbotsford, BC, Canada",4177.0,2,5813.0,347.0,1993.0,SingleFamily,24/06/2024,1449888.0,49.0524867,-122.3489951,"31600, Old Yale Road, Abbotsford, Fraser Valley Regional District, British Columbia, V2T 2B5, Canada"
R2898564,4,3,"36262 Auguston Pky S, Abbotsford, BC, Canada",2167.0,4,4130.0,507.0,2001.0,SingleFamily,24/06/2024,1099900.0,49.0805578,-122.2219718,"Auguston Parkway South, Auguston, Abbotsford, Fraser Valley Regional District, British Columbia, V3G 2Z1, Canada"
R2898860,2,2,"33887 Marshall Rd, Abbotsford, BC, Canada",1004.0,1,1551.0,397.0,1993.0,Condo,24/06/2024,399000.0,49.0382369,-122.2739641,"Marshall Road, Abbotsford Centre, Abbotsford, Fraser Valley Regional District, British Columbia, V2S 6Y3, Canada"
R2898907,2,2,"3292 Vernon Terr, Abbotsford, BC, Canada",1228.0,1,2121.0,484.0,1987.0,Townhouse,24/06/2024,595000.0,49.0618097,-122.2586724,"Vernon Terrace, Lower Ten Oaks, Abbotsford, Fraser Valley Regional District, British Columbia, V2S 6W7, Canada"
R2896157,1,1,"33535 King Rd, Abbotsford, BC, Canada",785.0,1,909.0,292.0,1990.0,Condo,23/06/2024,229900.0,49.0308236,-122.3266547,"King Road, North Poplar, Abbotsford, Fraser Valley Regional District, British Columbia, V2T 5Z5, Canada"
R2897651,5,2,"3245 Jervis Cres, Abbotsford, BC, Canada",2044.0,6,4644.0,562.0,1979.0,SingleFamily,19/06/2024,1149000.0,49.06080194970801,-122.3417178979045,"3245, Jervis Crescent, Abbotsford, Fraser Valley Regional District, British Columbia, V2T 4R8, Canada"
R2897348,4,2,"35882 Eaglecrest Dr, Abbotsford, BC, Canada",2547.0,2,4241.0,431.0,1986.0,SingleFamily,19/06/2024,1099900.0,49.0450334,-122.2318275,"Eaglecrest Drive, Lower Sumas Mountain, Abbotsford, Fraser Valley Regional District, British Columbia, V3G 1E6, Canada"
R2897254,5,3,"3273 Deertrail Dr, Abbotsford, BC, Canada",3254.0,4,4898.0,429.0,1991.0,SingleFamily,19/06/2024,1399000.0,49.0626079,-122.3638239,"Deertrail Drive, Townline Hill, Abbotsford, Fraser Valley Regional District, British Columbia, V2T 5J6, Canada"
R2897855,3,1,"32870 George Ferguson Way, Abbotsford, BC, Canada",1185.0,1,1395.0,336.0,1976.0,Condo,20/06/2024,399000.0,49.05469375,-122.31331833339728,"32870, George Ferguson Way, City Centre, Abbotsford, Fraser Valley Regional District, British Columbia, V2S 7K1, Canada"
R2897302,4,3,"3720 Nanaimo Cres, Abbotsford, BC, Canada",2094.0,0,4255.0,510.0,1983.0,SingleFamily,19/06/2024,1069000.0,49.069516500000006,-122.31640220976142,"3720, Nanaimo Crescent, North Clearbrook, Abbotsford, Fraser Valley Regional District, British Columbia, V2T 4Z7, Canada"
R2897744,4,3,"3754 Balsam Cres, Abbotsford, BC, Canada",2603.0,6,4704.0,480.0,1980.0,SingleFamily,20/06/2024,1249900.0,49.0698415,-122.313750655,"3754, Balsam Crescent, Abbotsford, Fraser Valley Regional District, British Columbia, V2S 7A3, Canada"
R2896239,5,3,"35184 Kootenay Dr, Abbotsford, BC, Canada",2626.0,7,4961.0,495.0,1999.0,SingleFamily,19/06/2024,1299999.0,49.0725703,-122.2516988,"Kootenay Drive, Abbotsford, Fraser Valley Regional District, British Columbia, V2S 8K3, Canada"
R2897559,1,1,"33546 Holland Ave, Abbotsford, BC, Canada",733.0,1,1587.0,545.0,2008.0,Condo,19/06/2024,399800.0,49.03769595,-122.2947824856993,"33546, Holland Avenue, Mill Lake, Abbotsford, Fraser Valley Regional District, British Columbia, V2S 0C1, Canada"
R2897199,6,2,"34245 Larch St, Abbotsford, BC, Canada",2783.0,5,5168.0,485.0,1972.0,SingleFamily,18/06/2024,1349999.0,49.0509754,-122.2797651,"Larch Street, Abbotsford Centre, Abbotsford, Fraser Valley Regional District, British Columbia, V2S 2V5, Canada"
R2896090,4,2,"2905 Glenshiel Dr, Abbotsford, BC, Canada",2374.0,6,4305.0,484.0,1984.0,SingleFamily,17/06/2024,1150000.0,49.0546466,-122.2537767,"Glenshiel Drive, Abbotsford, Fraser Valley Regional District, British Columbia, V2S 7L7, Canada"
R2895255,1,1,"3090 Gladwin Rd, Abbotsford, BC, Canada",393.0,1,1240.0,852.0,2015.0,Condo,17/06/2024,334900.0,49.0581244,-122.31510602273046,"Hudson's Loft Phase 1, 3090, Gladwin Road, Abbotsford, Fraser Valley Regional District, British Columbia, V2T 0H5, Canada"
R2890733,4,3,"4728 Carl Creek Lane, Abbotsford, BC, Canada",2175.0,4,4396.0,539.0,2020.0,SingleFamily,18/06/2024,1174000.0,49.0884836,-122.206133,"Carl Creek Lane, Abbotsford, Fraser Valley Regional District, British Columbia, V3G 0A4, Canada"
R2896970,6,3,"2732 Tylney Lane, Abbotsford, BC, Canada",2671.0,4,4636.0,482.0,2013.0,SingleFamily,17/06/2024,1289900.0,49.0515232,-122.2689197,"Tylney Lane, Yale Court, McMillan, Abbotsford, Fraser Valley Regional District, British Columbia, V2S 8G9, Canada"
R2896782,3,1,"32550 Maclure Rd, Abbotsford, BC, Canada",1205.0,1,2254.0,521.0,1981.0,Townhouse,18/06/2024,629000.0,49.0597412,-122.3222066,"32550, Maclure Road, Abbotsford, Fraser Valley Regional District, British Columbia, V2T 4N3, Canada"
R2895803,5,3,"1777 Townline Rd, Abbotsford, BC, Canada",4378.0,9,16565.0,1871.0,1985.0,SingleFamily,16/06/2024,8195000.0,49.0541345,-122.3600148,"Townline Road, Abbotsford, Fraser Valley Regional District, British Columbia, V2T 5E5, Canada"
R2894994,1,1,"34909 Old Yale Rd, Abbotsford, BC, Canada",868.0,2,1483.0,489.0,1980.0,Townhouse,16/06/2024,424900.0,49.0118384,-122.1345217,"Old Yale Road, Abbotsford, Fraser Valley Regional District, British Columbia, V3G 1T7, Canada"
R2894890,6,3,"27892 Maclure Rd, Abbotsford, BC, Canada",4429.0,4,6524.0,361.0,2013.0,SingleFamily,16/06/2024,1599900.0,49.0601528,-122.2753235,"Maclure Road, Lower Ten Oaks, Abbotsford, Fraser Valley Regional District, British Columbia, V2S 7L4, Canada"
R2895299,3,2,"3149 Townline Rd, Abbotsford, BC, Canada",1647.0,5,4460.0,628.0,1990.0,SingleFamily,16/06/2024,1035000.0,49.0541345,-122.3600148,"Townline Road, Abbotsford, Fraser Valley Regional District, British Columbia, V2T 5E5, Canada"
R2896087,3,2,"2088 Winfield Dr, Abbotsford, BC, Canada",2277.0,4,3460.0,366.0,2004.0,Townhouse,16/06/2024,835000.0,49.039175,-122.2299245,"Winfield Drive, Abbotsford, Fraser Valley Regional District, British Columbia, V3G 2C6, Canada"
R2895588,2,2,"32044 Old Yale Rd, Abbotsford, BC, Canada",1338.0,1,1649.0,373.0,1993.0,Condo,16/06/2024,499900.0,49.0516586,-122.33658111393218,"Green Gables, 32044, Old Yale Road, Clearbrook, Abbotsford, Fraser Valley Regional District, British Columbia, V2T 2C9, Canada"
R2896699,4,3,"32549 Peardonville Rd, Abbotsford, BC, Canada",2406.0,2,4411.0,457.0,2021.0,MultiFamily,16/06/2024,1099900.0,49.0452033,-122.3531633,"Peardonville Road, Abbotsford, Fraser Valley Regional District, British Columbia, V2T 6L1, Canada"
R2896053,2,2,"33318 Bourquin Cres E, Abbotsford, BC, Canada",909.0,1,1751.0,571.0,2007.0,Condo,16/06/2024,519900.0,49.0463021,-122.3007693,"33318, Bourquin Crescent East, Mill Lake, Abbotsford, Fraser Valley Regional District, British Columbia, V2S 0A6, Canada"
R2894630,2,2,"2860 Trethewey St, Abbotsford, BC, Canada",1060.0,2,2377.0,584.0,2017.0,Condo,12/06/2024,619900.0,49.0573351,-122.3268444,"Trethewey Street, Clearbrook, Abbotsford, Fraser Valley Regional District, British Columbia, V2T 3R3, Canada"
R2894964,2,1,"32950 Amicus Pl, Abbotsford, BC, Canada",854.0,1,1277.0,421.0,1981.0,Condo,13/06/2024,359900.0,49.053192300000006,-122.3111074942931,"The Haven, 32950, Amicus Place, City Centre, Abbotsford, Fraser Valley Regional District, British Columbia, V2S 6G9, Canada"
R2894949,5,3,"35519 Mckee Rd, Abbotsford, BC, Canada",5329.0,4,7148.0,337.0,2005.0,SingleFamily,13/06/2024,1799900.0,49.065393,-122.2432137,"McKee Road, Upper Ten Oaks, Abbotsford, Fraser Valley Regional District, British Columbia, V3G 3B1, Canada"
R2895640,2,2,"1514 Mccallum Rd, Abbotsford, BC, Canada",802.0,2,864.0,660.0,2022.0,Condo,13/06/2024,529999.0,49.0301721,-122.29256472348604,"1514, McCallum Road, UDistrict, Abbotsford, Fraser Valley Regional District, British Columbia, V2S 0K7, Canada"
R2895208,2,2,"33318 Bourquin Cres E, Abbotsford, BC, Canada",992.0,2,1995.0,549.0,2007.0,Condo,13/06/2024,544900.0,49.0463021,-122.3007693,"33318, Bourquin Crescent East, Mill Lake, Abbotsford, Fraser Valley Regional District, British Columbia, V2S 0A6, Canada"
R2894874,2,2,"33175 Old Yale Rd, Abbotsford, BC, Canada",1235.0,1,1824.0,425.0,1992.0,Condo,13/06/2024,524900.0,49.05200425,-122.30457098317368,"33175, Old Yale Road, City Centre, Abbotsford, Fraser Valley Regional District, British Columbia, V2S 2J4, Canada"
R2894250,6,3,"2614 Valemont Cres, Abbotsford, BC, Canada",2702.0,6,4736.0,462.0,1975.0,SingleFamily,13/06/2024,1249000.0,49.0496884,-122.3504692995283,"2614, Valemont Crescent, Abbotsford, Fraser Valley Regional District, British Columbia, V2T 3V5, Canada"
R2893220,2,2,"2901 Trafalgar St, Abbotsford, BC, Canada",1185.0,2,1261.0,362.0,1987.0,Townhouse,11/06/2024,429900.0,49.05463405,-122.3092929756088,"2901, Trafalgar Street, City Centre, Abbotsford, Fraser Valley Regional District, British Columbia, V2S 7Y1, Canada"
R2894140,2,1,"31955 Old Yale Rd, Abbotsford, BC, Canada",1032.0,1,1196.0,435.0,1982.0,Condo,11/06/2024,449900.0,49.0522093,-122.3390107,"31955, Old Yale Road, Clearbrook, Abbotsford, Fraser Valley Regional District, British Columbia, V2T 4N1, Canada"
R2893203,4,2,"3363 Okanagan Dr, Abbotsford, BC, Canada",2375.0,7,4945.0,564.0,1983.0,SingleFamily,11/06/2024,1340000.0,49.063181,-122.321275,"3363, Okanagan Drive, North Clearbrook, Abbotsford, Fraser Valley Regional District, British Columbia, V2T 4Z2, Canada"
R2894059,4,2,"32554 Murray Ave, Abbotsford, BC, Canada",2916.0,8,5018.0,406.0,1984.0,SingleFamily,11/06/2024,1184900.0,49.0470211,-122.321776,"32554, Murray Avenue, City Centre, Abbotsford, Fraser Valley Regional District, British Columbia, V2T 4T5, Canada"
R2893261,5,3,"35387 Delair Rd, Abbotsford, BC, Canada",2688.0,6,4309.0,435.0,1981.0,SingleFamily,11/06/2024,1170000.0,49.0364694,-122.2661687,"DeLair Road, McMillan, Abbotsford, Fraser Valley Regional District, British Columbia, V2S 2E1, Canada"
R2894285,2,2,"2886 Montrose Ave, Abbotsford, BC, Canada",1253.0,2,2500.0,546.0,2024.0,Townhouse,11/06/2024,684900.0,49.0539741,-122.292015,"2886, Montrose Avenue, Historic Downtown Abbotsford, Abbotsford, Fraser Valley Regional District, British Columbia, V2S 5C1, Canada"
R2893285,6,4,"30490 Northridge Way, Abbotsford, BC, Canada",3230.0,6,5175.0,460.0,2003.0,SingleFamily,11/06/2024,1488800.0,49.0693873,-122.3784549,"Northridge Way, Abbotsford, Fraser Valley Regional District, British Columbia, V2T 6T5, Canada"
R2893659,3,2,"35626 Mckee Rd, Abbotsford, BC, Canada",1924.0,4,3274.0,472.0,2010.0,Townhouse,11/06/2024,910000.0,49.0791653,-122.2127651,"McKee Road, Straiton, Abbotsford, Fraser Valley Regional District, British Columbia, V3G 0A4, Canada"
R2892541,2,2,"31158 Westridge Pl, Abbotsford, BC, Canada",859.0,1,2128.0,698.0,2021.0,Condo,09/06/2024,599800.0,49.0685579,-122.3632969,"Westridge Place, Westerleigh, Abbotsford, Fraser Valley Regional District, British Columbia, V2T 0G6, Canada"
R2893331,3,2,"3055 Trafalgar St, Abbotsford, BC, Canada",1951.0,2,2271.0,374.0,1986.0,Townhouse,09/06/2024,729900.0,49.0563957,-122.3087573,"Trafalgar Street, City Centre, Abbotsford, Fraser Valley Regional District, British Columbia, V2S 7X5, Canada"
R2892635,4,3,"35872 Heatherstone Pl, Abbotsford, BC, Canada",2530.0,4,4724.0,493.0,1986.0,SingleFamily,09/06/2024,1249000.0,49.0433701,-122.2312215,"Heatherstone Place, Lower Sumas Mountain, Abbotsford, Fraser Valley Regional District, British Columbia, V3G 1E6, Canada"
R2893248,2,1,"1909 Salton Rd, Abbotsford, BC, Canada",910.0,2,1285.0,351.0,1975.0,Condo,09/06/2024,319900.0,49.0360931,-122.2876542,"Salton Road, McCallum, Abbotsford Centre, Abbotsford, Fraser Valley Regional District, British Columbia, V2S 3W6, Canada"
R2892977,1,1,"3080 Gladwin Rd, Abbotsford, BC, Canada",378.0,1,1239.0,894.0,2016.0,Condo,09/06/2024,338000.0,49.0581011,-122.31429093624736,"Hudson's Loft Phase 2, 3080, Gladwin Road, Abbotsford, Fraser Valley Regional District, British Columbia, V2T 0H5, Canada"
R2893512,4,3,"3583 Mckinley Dr, Abbotsford, BC, Canada",3325.0,5,5353.0,387.0,1992.0,SingleFamily,09/06/2024,1288000.0,49.062088,-122.24255,"McKinley Drive, Upper Ten Oaks, Abbotsford, Fraser Valley Regional District, British Columbia, V3G 3B1, Canada"
R2893581,2,2,"33568 George Ferguson Way, Abbotsford, BC, Canada",880.0,1,2082.0,589.0,2021.0,Condo,09/06/2024,519000.0,49.0501516,-122.2882893,"George Ferguson Way, Historic Downtown Abbotsford, Abbotsford, Fraser Valley Regional District, British Columbia, V2S 3X6, Canada"
R2892162,5,2,"32632 Haida Dr, Abbotsford, BC, Canada",2378.0,5,4387.0,409.0,1988.0,SingleFamily,06/06/2024,974000.0,49.0670227,-122.3207,"32632, Haida Drive, North Clearbrook, Abbotsford, Fraser Valley Regional District, British Columbia, V2T 4Z5, Canada"
R2891867,2,2,"2780 Ware St, Abbotsford, BC, Canada",1074.0,1,1611.0,449.0,1990.0,Condo,06/06/2024,482500.0,49.0401202,-122.3045541,"Ware Street, Marshall, Mill Lake, Abbotsford, Fraser Valley Regional District, British Columbia, V2S 3C3, Canada"
R2891170,4,3,"35931 Empress Dr, Abbotsford, BC, Canada",2839.0,2,3725.0,346.0,2005.0,Townhouse,05/06/2024,983800.0,49.0520238,-122.2291296,"Empress Drive, Lower Sumas Mountain, Abbotsford, Fraser Valley Regional District, British Columbia, V3G 0C8, Canada"
R2893681,3,2,"2235 Crystal Crt, Abbotsford, BC, Canada",1615.0,5,3668.0,617.0,1974.0,SingleFamily,06/06/2024,997000.0,49.0427198,-122.3483942,"2235, Crystal Court, Abbotsford, Fraser Valley Regional District, British Columbia, V2T 6A7, Canada"
R2891390,5,2,"2568 Mendham St, Abbotsford, BC, Canada",2100.0,4,4680.0,571.0,1971.0,SingleFamily,06/06/2024,1199900.0,49.0470377,-122.272873,"Mendham Street, Abbotsford Centre, Abbotsford, Fraser Valley Regional District, British Columbia, V2S 8G9, Canada"
R2891051,2,2,"3182 Gladwin Rd, Abbotsford, BC, Canada",1113.0,2,1980.0,584.0,2021.0,Condo,05/06/2024,650000.0,49.05928655,-122.31186741025438,"Natura on Forest's Edge, 3182, Gladwin Road, Abbotsford, Fraser Valley Regional District, British Columbia, V2T 0K8, Canada"
R2891289,5,2,"33137 Capri Crt, Abbotsford, BC, Canada",2170.0,0,3883.0,546.0,1977.0,SingleFamily,05/06/2024,1185000.0,49.0343964,-122.3062281,"33137, Capri Court, UDistrict, Abbotsford, Fraser Valley Regional District, British Columbia, V2S 5N5, Canada"
R2891535,5,2,"32855 Harwood Cres, Abbotsford, BC, Canada",2160.0,6,4544.0,555.0,1980.0,SingleFamily,05/06/2024,1199888.0,49.06952115,-122.31449853859044,"32855, Harwood Crescent, Abbotsford, Fraser Valley Regional District, British Columbia, V2S 7A6, Canada"
R2891620,2,2,"34959 Old Clayburn Rd, Abbotsford, BC, Canada",1629.0,1,2464.0,337.0,1989.0,Townhouse,04/06/2024,549900.0,49.0616776,-122.254954,"Old Clayburn Road, Upper Ten Oaks, Abbotsford, Fraser Valley Regional District, British Columbia, V2T 7L7, Canada"
R2891454,7,3,"3476 Creston Dr, Abbotsford, BC, Canada",3107.0,6,5241.0,401.0,1986.0,SingleFamily,04/06/2024,1249000.0,49.0651571,-122.3367112449932,"3476, Creston Drive, Abbotsford, Fraser Valley Regional District, British Columbia, V2T 5B9, Canada"
R2888848,6,4,"2711 Bristol Dr, Abbotsford, BC, Canada",3319.0,6,5610.0,451.0,2013.0,SingleFamily,04/06/2024,1499900.0,49.0533553,-122.2701106,"Bristol Drive, Yale Court, Abbotsford, Fraser Valley Regional District, British Columbia, V2S 7E6, Canada"
R2889057,3,1,"3030 Trethewey St, Abbotsford, BC, Canada",1164.0,1,2254.0,548.0,1980.0,Townhouse,04/06/2024,639000.0,49.0576426,-122.3262136,"3030, Trethewey Street, Clearbrook, Abbotsford, Fraser Valley Regional District, British Columbia, V2T 4N2, Canada"
R2892215,6,6,"34991 Hamon Dr, Abbotsford, BC, Canada",7110.0,0,9638.0,337.0,1997.0,SingleFamily,04/06/2024,2399000.0,49.035448,-122.2591512,"Hamon Drive, McMillan, Abbotsford, Fraser Valley Regional District, British Columbia, V2S 6M5, Canada"
R2890384,7,3,"34078 Amblewood Pl, Abbotsford, BC, Canada",3331.0,6,2023.0,398.0,2005.0,SingleFamily,03/06/2024,1329000.0,49.0328643,-122.27817835027192,"34078, Amblewood Place, UDistrict, Abbotsford, Fraser Valley Regional District, British Columbia, V2S 7N2, Canada"
R2889761,3,2,"2331 Alder St, Abbotsford, BC, Canada",2692.0,4,4666.0,464.0,1959.0,SingleFamily,04/06/2024,1249900.0,49.0444477,-122.3409084,"2331, Alder Street, Clearbrook, Abbotsford, Fraser Valley Regional District, British Columbia, V2T 2N6, Canada"
R2889109,3,2,"1973 Winfield Dr, Abbotsford, BC, Canada",2368.0,2,2746.0,327.0,1993.0,Townhouse,30/05/2024,775000.0,49.039175,-122.2299245,"Winfield Drive, Abbotsford, Fraser Valley Regional District, British Columbia, V3G 2C6, Canada"
R2887263,3,3,"3115 Trafalgar St, Abbotsford, BC, Canada",2044.0,1,2593.0,342.0,1990.0,Townhouse,30/05/2024,699900.0,49.0563957,-122.3087573,"Trafalgar Street, City Centre, Abbotsford, Fraser Valley Regional District, British Columbia, V2S 7X5, Canada"
R2889769,3,2,"35737 Old Yale Rd, Abbotsford, BC, Canada",1734.0,10,6884.0,807.0,1977.0,SingleFamily,31/05/2024,1399900.0,49.0118384,-122.1345217,"Old Yale Road, Abbotsford, Fraser Valley Regional District, British Columbia, V3G 1T7, Canada"
R2889970,7,5,"33682 Busby Rd, Abbotsford, BC, Canada",3991.0,4,5202.0,450.0,2022.0,SingleFamily,02/06/2024,1799000.0,49.0431573,-122.2913027,"33682, Busby Road, McCallum, Abbotsford Centre, Abbotsford, Fraser Valley Regional District, British Columbia, V2S 1V2, Canada"
R2889022,4,3,"36683 Carl Creek Cres, Abbotsford, BC, Canada",2385.0,4,4414.0,536.0,2020.0,SingleFamily,30/05/2024,1279000.0,49.0891287,-122.2063527,"Carl Creek Crescent, Abbotsford, Fraser Valley Regional District, British Columbia, V3G 0A4, Canada"
R2889495,2,2,"3176 Gladwin Rd, Abbotsford, BC, Canada",1065.0,1,1868.0,506.0,1997.0,Condo,01/06/2024,539900.0,49.0585969,-122.31211217168548,"3176, Gladwin Road, City Centre, Abbotsford, Fraser Valley Regional District, British Columbia, V2T 5T2, Canada"
R2890119,4,3,"8561 Bradner Rd, Abbotsford, BC, Canada",2920.0,0,6701.0,907.0,1945.0,SingleFamily,31/05/2024,2650000.0,49.0558749,-122.4262524,"Bradner Road, Aberdeen, Abbotsford, Fraser Valley Regional District, British Columbia, V4X 1K6, Canada"
R2889162,3,3,"2493 Montrose Ave, Abbotsford, BC, Canada",1097.0,2,2551.0,627.0,2020.0,Condo,30/05/2024,688800.0,49.0471979,-122.2906885,"Newgen Medical, 2493, Montrose Avenue, Abbotsford Centre, Abbotsford, Fraser Valley Regional District, British Columbia, V2S 0L5, Canada"
R2888077,5,2,"34357 Woodbine Cres, Abbotsford, BC, Canada",2574.0,1,4806.0,489.0,1961.0,SingleFamily,27/05/2024,1258800.0,49.0526422,-122.272568,"Woodbine Crescent, Abbotsford Centre, Abbotsford, Fraser Valley Regional District, British Columbia, V2S 7E6, Canada"
R2887697,7,4,"2706 Mitchell St, Abbotsford, BC, Canada",2856.0,9,5036.0,455.0,1990.0,SingleFamily,27/05/2024,1300000.0,49.0514127,-122.3538359,"2706, Mitchell Street, Abbotsford, Fraser Valley Regional District, British Columbia, V2T 5G4, Canada"
R2888925,4,3,"35423 Mckee Rd, Abbotsford, BC, Canada",4444.0,7,5362.0,313.0,2005.0,SingleFamily,27/05/2024,1395000.0,49.0791653,-122.2127651,"McKee Road, Straiton, Abbotsford, Fraser Valley Regional District, British Columbia, V3G 0A4, Canada"
R2888187,4,1,"3015 Trethewey St, Abbotsford, BC, Canada",1980.0,2,2639.0,347.0,1977.0,Townhouse,27/05/2024,689000.0,49.0573351,-122.3268444,"Trethewey Street, Clearbrook, Abbotsford, Fraser Valley Regional District, British Columbia, V2T 3R3, Canada"
R2888005,3,3,"30703 Blueridge Dr, Abbotsford, BC, Canada",3142.0,2,3005.0,278.0,1997.0,Townhouse,27/05/2024,874900.0,49.0676173,-122.3615473,"Blueridge Drive, Townline Hill, Abbotsford, Fraser Valley Regional District, British Columbia, V2T 5R2, Canada"
R2888155,1,1,"32959 George Ferguson Way, Abbotsford, BC, Canada",1003.0,1,1206.0,346.0,1982.0,Townhouse,27/05/2024,348000.0,49.0501516,-122.2882893,"George Ferguson Way, Historic Downtown Abbotsford, Abbotsford, Fraser Valley Regional District, British Columbia, V2S 3X6, Canada"
R2888405,2,2,"33123 George Ferguson Way, Abbotsford, BC, Canada",1543.0,2,1525.0,265.0,1990.0,Townhouse,27/05/2024,410000.0,49.0501516,-122.2882893,"George Ferguson Way, Historic Downtown Abbotsford, Abbotsford, Fraser Valley Regional District, British Columbia, V2S 3X6, Canada"
R2888189,2,2,"33668 King Rd, Abbotsford, BC, Canada",1127.0,2,1574.0,451.0,1994.0,Condo,27/05/2024,509000.0,49.0308619,-122.2911735,"33668, King Road, UDistrict, Abbotsford, Fraser Valley Regional District, British Columbia, V2S 7P8, Canada"
R2886665,2,2,"32120 Mount Waddington Ave, Abbotsford, BC, Canada",1127.0,1,1626.0,443.0,1995.0,Condo,23/05/2024,499900.0,49.0528018,-122.3353603,"Mount Waddington Avenue, Clearbrook, Abbotsford, Fraser Valley Regional District, British Columbia, V2T 2E8, Canada"
R2888359,2,1,"32959 George Ferguson Way, Abbotsford, BC, Canada",990.0,1,1206.0,434.0,1982.0,Townhouse,24/05/2024,429900.0,49.0501516,-122.2882893,"George Ferguson Way, Historic Downtown Abbotsford, Abbotsford, Fraser Valley Regional District, British Columbia, V2S 3X6, Canada"
R2887313,7,5,"3494 Promontory Crt, Abbotsford, BC, Canada",2910.0,6,5603.0,529.0,2001.0,SingleFamily,26/05/2024,1540000.0,49.0649045,-122.3468947,"3494, Promontory Court, Abbotsford, Fraser Valley Regional District, British Columbia, V2T 6S8, Canada"
R2886992,4,3,"3303 Mckinley Dr, Abbotsford, BC, Canada",3132.0,8,4479.0,467.0,1998.0,SingleFamily,23/05/2024,1464900.0,49.062088,-122.24255,"McKinley Drive, Upper Ten Oaks, Abbotsford, Fraser Valley Regional District, British Columbia, V3G 3B1, Canada"
R2886528,6,4,"2194 Merlot Blvd, Abbotsford, BC, Canada",3837.0,0,6551.0,440.0,2012.0,SingleFamily,23/05/2024,1689999.0,49.0424168,-122.4094606,"2194, Merlot Boulevard, Pepin Brook, Abbotsford, Fraser Valley Regional District, British Columbia, V4X 1J3, Canada"
R2887024,4,2,"32281 Adair Ave, Abbotsford, BC, Canada",2085.0,3,4516.0,561.0,1980.0,SingleFamily,23/05/2024,1169988.0,49.0617723,-122.3303989,"32281, Adair Avenue, North Clearbrook, Abbotsford, Fraser Valley Regional District, British Columbia, V2T 4L7, Canada"
R2886617,2,1,"32850 George Ferguson Way, Abbotsford, BC, Canada",918.0,1,1232.0,435.0,1976.0,Condo,23/05/2024,399900.0,49.0547353,-122.31474083711396,"32850, George Ferguson Way, City Centre, Abbotsford, Fraser Valley Regional District, British Columbia, V2S 7K1, Canada"
R2884503,3,3,"2832 Clearbrook Rd, Abbotsford, BC, Canada",1762.0,2,3082.0,492.0,2017.0,Townhouse,18/05/2024,868000.0,49.0535198,-122.3374015,"2832, Clearbrook Road, Clearbrook, Abbotsford, Fraser Valley Regional District, British Columbia, V2T 2Z4, Canada"
R2885704,2,1,"32850 George Ferguson Way, Abbotsford, BC, Canada",965.0,1,1216.0,403.0,1976.0,Condo,20/05/2024,389000.0,49.0547353,-122.31474083711396,"32850, George Ferguson Way, City Centre, Abbotsford, Fraser Valley Regional District, British Columbia, V2S 7K1, Canada"
R2884656,2,2,"30525 Cardinal Ave, Abbotsford, BC, Canada",879.0,2,1843.0,551.0,2009.0,Condo,19/05/2024,484999.0,49.06202805,-122.3787079889927,"Tamarind Westside Phase 2, 30525, Cardinal Avenue, Abbotsford, Fraser Valley Regional District, British Columbia, V2T 0A8, Canada"
R2885115,4,3,"32638 Downes Rd, Abbotsford, BC, Canada",4148.0,4,5455.0,346.0,2009.0,SingleFamily,20/05/2024,1439000.0,49.07311255,-122.32147169161364,"32638, Downes Road, Abbotsford, Fraser Valley Regional District, British Columbia, V4X 0A1, Canada"
R2886173,5,3,"2937 Southern Cres, Abbotsford, BC, Canada",3322.0,6,5282.0,391.0,1992.0,SingleFamily,20/05/2024,1299900.0,49.0555491,-122.3570897,"Southern Crescent, Abbotsford, Fraser Valley Regional District, British Columbia, V2S 7X9, Canada"
R2884348,6,4,"34965 High Dr, Abbotsford, BC, Canada",2500.0,5,4878.0,559.0,1974.0,SingleFamily,19/05/2024,1399999.0,49.0601018,-122.2614398,"High Drive, Lower Ten Oaks, Abbotsford, Fraser Valley Regional District, British Columbia, V2S 7H8, Canada"
R2886923,4,3,"3054 Trafalgar St, Abbotsford, BC, Canada",3006.0,2,2787.0,299.0,1987.0,Townhouse,18/05/2024,899000.0,49.0563957,-122.3087573,"Trafalgar Street, City Centre, Abbotsford, Fraser Valley Regional District, British Columbia, V2S 7X5, Canada"
R2884064,2,2,"32063 Mount Waddington Ave, Abbotsford, BC, Canada",1001.0,1,1844.0,524.0,2006.0,Condo,19/05/2024,524900.0,49.0528018,-122.3353603,"Mount Waddington Avenue, Clearbrook, Abbotsford, Fraser Valley Regional District, British Columbia, V2T 2E8, Canada"
R2883403,5,3,"4581 Sumas Mountain Rd, Abbotsford, BC, Canada",3325.0,5,4477.0,390.0,2021.0,SingleFamily,14/05/2024,1299900.0,49.0738305,-122.198348,"Sumas Mountain Road, Straiton, Abbotsford, Fraser Valley Regional District, British Columbia, V3G 2K1, Canada"
R2883289,5,4,"31111 N Burgess Ave, Abbotsford, BC, Canada",5295.0,0,5158.0,1188.0,1996.0,SingleFamily,14/05/2024,6295000.0,49.1119851,-122.3692515,"North Burgess Avenue, Mount Lehman, Abbotsford, Fraser Valley Regional District, British Columbia, V4X 1V5, Canada"
R2883043,2,2,"33675 Marshall Rd, Abbotsford, BC, Canada",1053.0,2,1562.0,398.0,1993.0,Condo,13/05/2024,419900.0,49.0382369,-122.2739641,"Marshall Road, Abbotsford Centre, Abbotsford, Fraser Valley Regional District, British Columbia, V2S 6Y3, Canada"
R2882672,5,3,"30922 Sandpiper Pl, Abbotsford, BC, Canada",3232.0,8,6346.0,411.0,1992.0,SingleFamily,13/05/2024,1329900.0,49.0596847,-122.3675477,"Sandpiper Place, Townline Hill, Abbotsford, Fraser Valley Regional District, British Columbia, V2T 6X5, Canada"
R2882223,2,2,"32828 Landeau Pl, Abbotsford, BC, Canada",1367.0,2,2745.0,509.0,2021.0,Townhouse,14/05/2024,697000.0,49.053641,-122.3142011,"Landeau Place, City Centre, Abbotsford, Fraser Valley Regional District, British Columbia, V2T 4S7, Canada"
R2883621,9,10,"171 Defehr Rd, Abbotsford, BC, Canada",8657.0,0,10170.0,678.0,2021.0,SingleFamily,14/05/2024,5875035.0,49.0023544,-122.4190975,"DeFehr Road, Abbotsford, Fraser Valley Regional District, British Columbia, V4X 2M5, Canada"
R2884371,2,2,"32633 Simon Ave, Abbotsford, BC, Canada",1189.0,1,2520.0,576.0,2016.0,Townhouse,14/05/2024,684900.0,49.0539739,-122.31965604264154,"32633, Simon Avenue, City Centre, Abbotsford, Fraser Valley Regional District, British Columbia, V2T 4W6, Canada"
R2883364,2,2,"32445 Simon Ave, Abbotsford, BC, Canada",1120.0,2,2008.0,584.0,2019.0,Condo,14/05/2024,654900.0,49.053295,-122.324079,"Simon Avenue, City Centre, Abbotsford, Fraser Valley Regional District, British Columbia, V2T 4Y2, Canada"
R2881503,7,5,"36779 Carl Creek Cres, Abbotsford, BC, Canada",3486.0,6,4858.0,401.0,2023.0,SingleFamily,09/05/2024,1399000.0,49.0891287,-122.2063527,"Carl Creek Crescent, Abbotsford, Fraser Valley Regional District, British Columbia, V3G 0A4, Canada"
R2881220,4,4,"35732 Zanatta Pl, Abbotsford, BC, Canada",3574.0,5,5349.0,447.0,2007.0,SingleFamily,08/05/2024,1599000.0,49.0390125,-122.2374012,"Zanatta Place, Abbotsford, Fraser Valley Regional District, British Columbia, V3G 2E3, Canada"
R2880494,10,7,"2368 Arbutus St, Abbotsford, BC, Canada",6028.0,0,8161.0,356.0,2013.0,SingleFamily,08/05/2024,2148000.0,49.04516485,-122.33904247066016,"2368, Arbutus Street, Clearbrook, Abbotsford, Fraser Valley Regional District, British Columbia, V2T 2N9, Canada"
R2881262,2,1,"2414 Church St, Abbotsford, BC, Canada",1052.0,0,1217.0,294.0,1984.0,Condo,09/05/2024,309900.0,49.0460005,-122.3349267,"Church Street, Clearbrook, Abbotsford, Fraser Valley Regional District, British Columbia, V2T 6N9, Canada"
R2881054,5,3,"4105 Verdon Way, Abbotsford, BC, Canada",3669.0,6,2131.0,653.0,1991.0,SingleFamily,08/05/2024,2399000.0,49.0768124,-122.3241834,"4105, Verdon Way, Abbotsford, Fraser Valley Regional District, British Columbia, V4X 1X3, Canada"
R2880728,2,1,"34909 Old Yale Rd, Abbotsford, BC, Canada",932.0,2,1529.0,480.0,1980.0,Condo,08/05/2024,448000.0,49.0118384,-122.1345217,"Old Yale Road, Abbotsford, Fraser Valley Regional District, British Columbia, V3G 1T7, Canada"
R2881331,1,1,"2551 Willow Lane, Abbotsford, BC, Canada",704.0,1,1410.0,454.0,1979.0,Condo,08/05/2024,319900.0,49.0483409,-122.2841075,"2551, Willow Lane, Abbotsford Centre, Abbotsford, Fraser Valley Regional District, British Columbia, V2S 5Z9, Canada"
R2881527,4,4,"2807 Maple St, Abbotsford, BC, Canada",2845.0,10,7120.0,562.0,2010.0,SingleFamily,09/05/2024,1599999.0,49.0527451,-122.283859,"Maple Street, Abbotsford Centre, Abbotsford, Fraser Valley Regional District, British Columbia, V2S 2V5, Canada"
R2879015,6,3,"3367 Hedley St, Abbotsford, BC, Canada",3041.0,4,4826.0,394.0,1985.0,SingleFamily,06/05/2024,1199900.0,49.0632029,-122.3372804,"3367, Hedley Street, Abbotsford, Fraser Valley Regional District, British Columbia, V2T 5C1, Canada"
R2880185,7,4,"27760 Pullman Ave, Abbotsford, BC, Canada",4299.0,4,5311.0,348.0,2009.0,SingleFamily,05/05/2024,1498800.0,49.0573664,-122.4557721,"Pullman Avenue, West Abbotsford, Abbotsford, Fraser Valley Regional District, British Columbia, V4X 2S8, Canada"
R2880552,5,3,"2915 Whistle Dr, Abbotsford, BC, Canada",2957.0,6,5595.0,473.0,2002.0,SingleFamily,06/05/2024,1399900.0,49.0540926,-122.4539504,"Whistle Drive, West Abbotsford, Abbotsford, Fraser Valley Regional District, British Columbia, V4X 1K7, Canada"
R2878441,3,2,"2816 Clearbrook Rd, Abbotsford, BC, Canada",1150.0,6,3805.0,782.0,1955.0,SingleFamily,05/05/2024,899900.0,49.0531809,-122.33762852844464,"2816, Clearbrook Road, Clearbrook, Abbotsford, Fraser Valley Regional District, British Columbia, V2T 2Z4, Canada"
R2879179,2,1,"32175 Old Yale Rd, Abbotsford, BC, Canada",913.0,1,1272.0,361.0,1973.0,Condo,06/05/2024,329900.0,49.0118384,-122.1345217,"Old Yale Road, Abbotsford, Fraser Valley Regional District, British Columbia, V3G 1T7, Canada"
R2879786,3,1,"32310 Mouat Dr, Abbotsford, BC, Canada",1224.0,1,2203.0,507.0,1978.0,Townhouse,05/05/2024,621700.0,49.0587662,-122.3292386,"Mouat Drive, Abbotsford, Fraser Valley Regional District, British Columbia, V2T 4E9, Canada"
R2878293,6,6,"35459 Verado Crt, Abbotsford, BC, Canada",4886.0,4,6913.0,470.0,2020.0,SingleFamily,05/05/2024,2300000.0,49.0524733,-122.2422189,"Verado Court, Eagle Mountain, Abbotsford, Fraser Valley Regional District, British Columbia, V3G 0C8, Canada"
R2876043,7,3,"3463 Saanich St, Abbotsford, BC, Canada",2781.0,9,4744.0,431.0,1987.0,SingleFamily,30/04/2024,1200000.0,49.0648318,-122.3191755,"3463, Saanich Street, North Clearbrook, Abbotsford, Fraser Valley Regional District, British Columbia, V2T 4Z3, Canada"
R2878054,4,1,"32560 Oriole Cres, Abbotsford, BC, Canada",1656.0,5,3681.0,573.0,1977.0,SingleFamily,30/04/2024,949900.0,49.0567924,-122.322424,"32560, Oriole Crescent, City Centre, Abbotsford, Fraser Valley Regional District, British Columbia, V2T 4E2, Canada"
R2877173,3,2,"2734 Sandon Dr, Abbotsford, BC, Canada",1525.0,3,3109.0,576.0,1978.0,SingleFamily,30/04/2024,879900.0,49.0513989,-122.2643464,"Sandon Drive, Yale Court, Abbotsford, Fraser Valley Regional District, British Columbia, V2S 7S6, Canada"
R2876355,3,1,"32310 Mouat Dr, Abbotsford, BC, Canada",1227.0,1,2146.0,529.0,1977.0,Townhouse,30/04/2024,649900.0,49.0587662,-122.3292386,"Mouat Drive, Abbotsford, Fraser Valley Regional District, British Columbia, V2T 4E9, Canada"
R2883644,2,2,"31032 Westridge Pl, Abbotsford, BC, Canada",1308.0,2,2406.0,535.0,2014.0,Townhouse,15/05/2024,699900.0,49.0685579,-122.3632969,"Westridge Place, Westerleigh, Abbotsford, Fraser Valley Regional District, British Columbia, V2T 0G6, Canada"
R2877607,2,2,"2555 Ware St, Abbotsford, BC, Canada",1404.0,0,3007.0,526.0,2018.0,Condo,30/04/2024,739000.0,49.0480733,-122.3047541,"2555, Ware Street, Mill Lake, Abbotsford, Fraser Valley Regional District, British Columbia, V2S 3E2, Canada"
R2877164,5,3,"1404 Townline Rd, Abbotsford, BC, Canada",2987.0,0,5085.0,2778.0,1976.0,SingleFamily,30/04/2024,8299900.0,49.0541345,-122.3600148,"Townline Road, Abbotsford, Fraser Valley Regional District, British Columbia, V2T 5E5, Canada"
R2876577,2,1,"32718 Garibaldi Dr, Abbotsford, BC, Canada",1154.0,1,1417.0,395.0,1986.0,Townhouse,30/04/2024,456000.0,49.0578385,-122.3176302,"Garibaldi Drive, Abbotsford, Fraser Valley Regional District, British Columbia, V2T 5T6, Canada"
R2875466,2,2,"32838 Ventura Ave, Abbotsford, BC, Canada",1028.0,2,2341.0,612.0,2021.0,Condo,25/04/2024,629999.0,49.0520588,-122.3138760899711,"Ventura Abbotsford, 32838, Ventura Avenue, City Centre, Abbotsford, Fraser Valley Regional District, British Columbia, V2S 6J3, Canada"
R2874334,3,2,"33715 Mayfair Ave, Abbotsford, BC, Canada",1620.0,3,4021.0,801.0,1955.0,SingleFamily,24/04/2024,1299000.0,49.040212,-122.29043555,"33715, Mayfair Avenue, McCallum, Abbotsford Centre, Abbotsford, Fraser Valley Regional District, British Columbia, V2S 1P7, Canada"
R2874251,6,3,"4581 Sumas Mountain Rd, Abbotsford, BC, Canada",2998.0,6,2881.0,433.0,2024.0,SingleFamily,24/04/2024,1299900.0,49.0738305,-122.198348,"Sumas Mountain Road, Straiton, Abbotsford, Fraser Valley Regional District, British Columbia, V3G 2K1, Canada"
R2875022,4,3,"2580 Janzen St, Abbotsford, BC, Canada",2149.0,2,2204.0,418.0,2023.0,SingleFamily,24/04/2024,899900.0,49.0490856,-122.3437603,"2580, Janzen Street, Abbotsford, Fraser Valley Regional District, British Columbia, V2T 2R7, Canada"
R2873546,2,2,"3182 Gladwin Rd, Abbotsford, BC, Canada",924.0,2,2644.0,713.0,2022.0,Condo,21/04/2024,659000.0,49.05928655,-122.31186741025438,"Natura on Forest's Edge, 3182, Gladwin Road, Abbotsford, Fraser Valley Regional District, British Columbia, V2T 0K8, Canada"
R2873459,5,3,"2871 Crossley Dr, Abbotsford, BC, Canada",2530.0,4,5165.0,474.0,1990.0,SingleFamily,21/04/2024,1200000.0,49.056347,-122.3516891,"Crossley Drive, Abbotsford, Fraser Valley Regional District, British Columbia, V2T 4W4, Canada"
R2873096,4,2,"2889 Upland Cres, Abbotsford, BC, Canada",2600.0,0,5313.0,538.0,1967.0,SingleFamily,21/04/2024,1399000.0,49.054655,-122.3464902,"2889, Upland Crescent, Abbotsford, Fraser Valley Regional District, British Columbia, V2T 2G1, Canada"
R2873175,3,2,"4295 Old Clayburn Rd, Abbotsford, BC, Canada",2287.0,4,4222.0,606.0,2021.0,SingleFamily,21/04/2024,1388000.0,49.0616776,-122.254954,"Old Clayburn Road, Upper Ten Oaks, Abbotsford, Fraser Valley Regional District, British Columbia, V2T 7L7, Canada"
R2874220,10,8,"2011 Vinewood St, Abbotsford, BC, Canada",6495.0,8,7952.0,431.0,2023.0,SingleFamily,21/04/2024,2799999.0,49.038508,-122.3034874,"Vinewood Street, Marshall, Mill Lake, Abbotsford, Fraser Valley Regional District, British Columbia, V2S 3H3, Canada"
R2875302,1,1,"33450 George Ferguson Way, Abbotsford, BC, Canada",684.0,1,1074.0,438.0,1981.0,Condo,21/04/2024,299900.0,49.0501516,-122.2882893,"George Ferguson Way, Historic Downtown Abbotsford, Abbotsford, Fraser Valley Regional District, British Columbia, V2S 3X6, Canada"
R2873425,3,1,"32870 George Ferguson Way, Abbotsford, BC, Canada",1153.0,1,1451.0,407.0,1976.0,Condo,21/04/2024,469999.0,49.05469375,-122.31331833339728,"32870, George Ferguson Way, City Centre, Abbotsford, Fraser Valley Regional District, British Columbia, V2S 7K1, Canada"
R2873516,2,2,"3110 Trafalgar St, Abbotsford, BC, Canada",1517.0,1,1777.0,336.0,1992.0,Townhouse,21/04/2024,510381.0,49.0563957,-122.3087573,"Trafalgar Street, City Centre, Abbotsford, Fraser Valley Regional District, British Columbia, V2S 7X5, Canada"
R2871946,4,2,"2033 Mckenzie Rd, Abbotsford, BC, Canada",1677.0,0,3082.0,485.0,2021.0,Townhouse,15/04/2024,814900.0,49.038808,-122.282907,"2033, McKenzie Road, McCallum, Abbotsford Centre, Abbotsford, Fraser Valley Regional District, British Columbia, V2S 3Z6, Canada"
R2871493,5,2,"33451 Westbury Ave, Abbotsford, BC, Canada",2318.0,0,4030.0,603.0,1964.0,SingleFamily,15/04/2024,1399000.0,49.0354197,-122.2973912,"33451, Westbury Avenue, Marshall, Mill Lake, Abbotsford, Fraser Valley Regional District, British Columbia, V2S 1C6, Canada"
R2872174,2,2,"2771 Montrose Ave, Abbotsford, BC, Canada",1016.0,1,1800.0,669.0,2026.0,Condo,16/04/2024,680000.0,49.0526909,-122.291879,"2771, Montrose Avenue, Historic Downtown Abbotsford, Abbotsford, Fraser Valley Regional District, British Columbia, V2S 5C1, Canada"
R2872772,6,5,"27625 Railcar Cres, Abbotsford, BC, Canada",2921.0,0,5618.0,547.0,2016.0,SingleFamily,15/04/2024,1599900.0,49.0490262,-122.4588144,"Railcar Crescent, West Abbotsford, Abbotsford, Fraser Valley Regional District, British Columbia, V4W 3K1, Canada"
R2872069,1,1,"2771 Montrose Ave, Abbotsford, BC, Canada",643.0,1,1800.0,761.0,2026.0,Condo,15/04/2024,489900.0,49.0526909,-122.291879,"2771, Montrose Avenue, Historic Downtown Abbotsford, Abbotsford, Fraser Valley Regional District, British Columbia, V2S 5C1, Canada"
R2870419,2,2,"2450 Church St, Abbotsford, BC, Canada",1095.0,1,1389.0,374.0,1991.0,Condo,15/04/2024,409999.0,49.0460005,-122.3349267,"Church Street, Clearbrook, Abbotsford, Fraser Valley Regional District, British Columbia, V2T 6N9, Canada"
R2871789,4,4,"3699 Eldridge Rd, Abbotsford, BC, Canada",3473.0,10,8489.0,662.0,2009.0,SingleFamily,15/04/2024,2299900.0,49.0631848,-122.1728756,"Eldridge Road, Abbotsford, Fraser Valley Regional District, British Columbia, V3G 2G6, Canada"
R2870586,4,2,"3150 Consort Crt, Abbotsford, BC, Canada",1973.0,0,4344.0,633.0,1980.0,SingleFamily,15/04/2024,1249999.0,49.0593563,-122.3421646,"3150, Consort Court, Abbotsford, Fraser Valley Regional District, British Columbia, V2T 4J5, Canada"
R2869452,5,3,"2744 Valemont Cres, Abbotsford, BC, Canada",2119.0,6,4689.0,507.0,1976.0,SingleFamily,09/04/2024,1075000.0,49.0524122,-122.3508953,"2744, Valemont Crescent, Abbotsford, Fraser Valley Regional District, British Columbia, V2T 3V5, Canada"
R2869284,3,0,"30385 Sunset Cres, Abbotsford, BC, Canada",1083.0,0,2933.0,737.0,1967.0,MultiFamily,08/04/2024,799000.0,49.0773291,-122.385802,"Sunset Crescent, Abbotsford, Fraser Valley Regional District, British Columbia, V2T 5W5, Canada"
R2868613,2,2,"30930 Westridge Pl, Abbotsford, BC, Canada",1275.0,3,2464.0,549.0,2018.0,Townhouse,08/04/2024,700000.0,49.0685579,-122.3632969,"Westridge Place, Westerleigh, Abbotsford, Fraser Valley Regional District, British Columbia, V2T 0G6, Canada"
R2869294,5,2,"34727 1st Ave, Abbotsford, BC, Canada",2254.0,2,4471.0,488.0,1989.0,SingleFamily,09/04/2024,1100000.0,49.0034859,-122.2626733,"34727, 1st Avenue, Huntingdon, Abbotsford, Fraser Valley Regional District, British Columbia, V2S 8C2, Canada"
R2868443,2,2,"2180 Gladwin Rd, Abbotsford, BC, Canada",875.0,1,2921.0,731.0,2018.0,Condo,09/04/2024,639900.0,49.04150345,-122.3149655554006,"2180, Gladwin Road, Marshall, Mill Lake, Abbotsford, Fraser Valley Regional District, British Columbia, V2S 0H4, Canada"
R2867547,3,1,"2544 Campbell Ave, Abbotsford, BC, Canada",1204.0,5,4339.0,1021.0,1943.0,SingleFamily,08/04/2024,1229900.0,49.0475622,-122.2825854,"Campbell Avenue, Abbotsford Centre, Abbotsford, Fraser Valley Regional District, British Columbia, V2S 2K1, Canada"
R2868866,5,3,"3160 Townline Rd, Abbotsford, BC, Canada",1946.0,3,2837.0,441.0,1994.0,Townhouse,08/04/2024,859000.0,49.0541345,-122.3600148,"Townline Road, Abbotsford, Fraser Valley Regional District, British Columbia, V2T 5E5, Canada"
R2869577,2,2,"34101 Old Yale Rd, Abbotsford, BC, Canada",1292.0,2,1938.0,464.0,1997.0,Condo,09/04/2024,599900.0,49.0118384,-122.1345217,"Old Yale Road, Abbotsford, Fraser Valley Regional District, British Columbia, V3G 1T7, Canada"
R2867260,5,2,"35120 Morgan Way, Abbotsford, BC, Canada",1969.0,1,4195.0,588.0,1979.0,SingleFamily,02/04/2024,1159000.0,49.0610514,-122.2517767,"Morgan Way, Upper Ten Oaks, Vicarro Ranch, Abbotsford, Fraser Valley Regional District, British Columbia, V2S 7L7, Canada"
R2865411,4,2,"2826 Maple St, Abbotsford, BC, Canada",1880.0,6,2023.0,913.0,1942.0,SingleFamily,02/04/2024,1717000.0,49.0527451,-122.283859,"Maple Street, Abbotsford Centre, Abbotsford, Fraser Valley Regional District, British Columbia, V2S 2V5, Canada"
R2864827,6,3,"35005 Bateman Rd, Abbotsford, BC, Canada",3676.0,8,5875.0,446.0,2014.0,SingleFamily,01/04/2024,1639900.0,49.0745779,-122.2551995,"Bateman Road, Abbotsford, Fraser Valley Regional District, British Columbia, V2S 8K3, Canada"
R2866454,2,2,"33280 Bourquin Cres E, Abbotsford, BC, Canada",1026.0,1,1538.0,511.0,1993.0,Condo,02/04/2024,525000.0,49.0466703,-122.30242971874522,"Emerald Springs, 33280, Bourquin Crescent East, Mill Lake, Abbotsford, Fraser Valley Regional District, British Columbia, V2S 7K2, Canada"
R2865712,7,6,"2541 Railcar Cres, Abbotsford, BC, Canada",3981.0,6,6180.0,427.0,2015.0,SingleFamily,02/04/2024,1700000.0,49.0490262,-122.4588144,"Railcar Crescent, West Abbotsford, Abbotsford, Fraser Valley Regional District, British Columbia, V4W 3K1, Canada"
R2865762,5,2,"2977 Princess St, Abbotsford, BC, Canada",2166.0,4,4526.0,623.0,1972.0,SingleFamily,02/04/2024,1349900.0,49.05624115,-122.344111945168,"2977, Princess Street, Abbotsford, Fraser Valley Regional District, British Columbia, V2T 2S8, Canada"
R2864730,1,1,"1909 Salton Rd, Abbotsford, BC, Canada",728.0,1,1044.0,349.0,1976.0,Condo,02/04/2024,254700.0,49.0360931,-122.2876542,"Salton Road, McCallum, Abbotsford Centre, Abbotsford, Fraser Valley Regional District, British Columbia, V2S 3W6, Canada"
R2863587,2,2,"33960 Old Yale Rd, Abbotsford, BC, Canada",838.0,1,1464.0,523.0,2007.0,Condo,26/03/2024,439000.0,49.0118384,-122.1345217,"Old Yale Road, Abbotsford, Fraser Valley Regional District, British Columbia, V3G 1T7, Canada"
R2863395,7,4,"33222 Lynn Ave, Abbotsford, BC, Canada",3248.0,6,4956.0,461.0,1972.0,SingleFamily,26/03/2024,1499888.0,49.0361987,-122.30406322943392,"33222, Lynn Avenue, Marshall, Mill Lake, Abbotsford, Fraser Valley Regional District, British Columbia, V2S 1C9, Canada"
R2863604,1,1,"34797 Delair Rd, Abbotsford, BC, Canada",1000.0,6,6517.0,2190.0,1938.0,SingleFamily,25/03/2024,2190000.0,49.0336599,-122.2563222,"DeLair Road, McMillan, Abbotsford, Fraser Valley Regional District, British Columbia, V3G 3B4, Canada"
R2863566,4,3,"2592 Mitchell St, Abbotsford, BC, Canada",1951.0,6,4526.0,609.0,1990.0,SingleFamily,26/03/2024,1190000.0,49.0493105,-122.35378719166084,"2592, Mitchell Street, Abbotsford, Fraser Valley Regional District, British Columbia, V2T 5G5, Canada"
R2865021,4,3,"2380 Farrant Cres, Abbotsford, BC, Canada",1677.0,6,4671.0,775.0,1969.0,SingleFamily,26/03/2024,1299999.0,49.0453962,-122.3015988,"2380, Farrant Crescent, Marshall, Mill Lake, Abbotsford, Fraser Valley Regional District, British Columbia, V2S 1V3, Canada"
R2863705,2,2,"6077 Ross Rd, Abbotsford, BC, Canada",1500.0,10,3952.0,4600.0,1960.0,SingleFamily,26/03/2024,6900000.0,49.0660571,-122.4037673,"Ross Road, Abbotsford, Fraser Valley Regional District, British Columbia, V4X 1H2, Canada"
R2864088,5,4,"1783 Everett Rd, Abbotsford, BC, Canada",3184.0,8,6235.0,625.0,1982.0,SingleFamily,25/03/2024,1990000.0,49.0339761,-122.2545011,"Everett Road, Abbotsford, Fraser Valley Regional District, British Columbia, V3G 3B4, Canada"
R2861893,7,5,"3436 Headwater Pl, Abbotsford, BC, Canada",4056.0,6,6227.0,394.0,2016.0,SingleFamily,17/03/2024,1599999.0,49.0643501,-122.364174,"Headwater Place, Townline Hill, Abbotsford, Fraser Valley Regional District, British Columbia, V2T 5J6, Canada"
R2859851,5,3,"30627 Crestview Crt, Abbotsford, BC, Canada",2718.0,5,4972.0,522.0,2002.0,SingleFamily,17/03/2024,1420000.0,49.0694295,-122.3755595,"Crestview Court, Abbotsford, Fraser Valley Regional District, British Columbia, V2T 5W3, Canada"
R2859382,3,1,"1963 Townline Rd, Abbotsford, BC, Canada",1280.0,0,1372.0,7656.0,1948.0,SingleFamily,17/03/2024,9800000.0,49.0541345,-122.3600148,"Townline Road, Abbotsford, Fraser Valley Regional District, British Columbia, V2T 5E5, Canada"
R2860510,5,3,"28585 Townshipline Rd, Abbotsford, BC, Canada",3635.0,10,11888.0,880.0,1971.0,SingleFamily,17/03/2024,3199900.0,49.08931,-122.334299,"Townshipline Road, Abbotsford, Fraser Valley Regional District, British Columbia, V4X 2S6, Canada"
R2860557,5,3,"33918 George Ferguson Way, Abbotsford, BC, Canada",2756.0,8,2023.0,652.0,1955.0,MultiFamily,17/03/2024,1799000.0,49.0501483,-122.2876636,"George Ferguson Way, Abbotsford Centre, Abbotsford, Fraser Valley Regional District, British Columbia, V2S 3X8, Canada"
R2860929,5,3,"36472 Cardiff Pl, Abbotsford, BC, Canada",2551.0,4,5130.0,558.0,2005.0,SingleFamily,17/03/2024,1425000.0,49.0541037,-122.2154327,"Cardiff Place, Abbotsford, Fraser Valley Regional District, British Columbia, V3G 2J3, Canada"
R2861992,3,3,"3588 Mckinley Dr, Abbotsford, BC, Canada",2883.0,2,4087.0,443.0,1992.0,SingleFamily,16/03/2024,1279000.0,49.062088,-122.24255,"McKinley Drive, Upper Ten Oaks, Abbotsford, Fraser Valley Regional District, British Columbia, V3G 3B1, Canada"
R2860775,4,3,"2558 Lakeview Cres, Abbotsford, BC, Canada",2090.0,4,4091.0,693.0,1967.0,SingleFamily,17/03/2024,1449000.0,49.0483928,-122.3060863,"2558, Lakeview Crescent, City Centre, Mill Lake, Abbotsford, Fraser Valley Regional District, British Columbia, V2S 3A9, Canada"
R2856999,5,3,"31453 Springhill Pl, Abbotsford, BC, Canada",2704.0,10,4737.0,480.0,1980.0,SingleFamily,07/03/2024,1299900.0,49.0477655,-122.3528731,"31453, Springhill Place, Abbotsford, Fraser Valley Regional District, British Columbia, V2T 4K1, Canada"
R2855632,5,3,"3847 Lindsay St, Abbotsford, BC, Canada",2200.0,8,4338.0,536.0,1980.0,SingleFamily,04/03/2024,1179900.0,49.0717781,-122.3146008,"3847, Lindsay Street, Abbotsford, Fraser Valley Regional District, British Columbia, V2S 7A2, Canada"
R2856089,2,1,"1909 Salton Rd, Abbotsford, BC, Canada",950.0,2,1295.0,315.0,1975.0,Condo,05/03/2024,299700.0,49.0360931,-122.2876542,"Salton Road, McCallum, Abbotsford Centre, Abbotsford, Fraser Valley Regional District, British Columbia, V2S 3W6, Canada"
R2857336,1,1,"30525 Cardinal Ave, Abbotsford, BC, Canada",536.0,1,1378.0,744.0,2009.0,Condo,07/03/2024,399000.0,49.06202805,-122.3787079889927,"Tamarind Westside Phase 2, 30525, Cardinal Avenue, Abbotsford, Fraser Valley Regional District, British Columbia, V2T 0A8, Canada"
R2855682,6,4,"35468 Verado Crt, Abbotsford, BC, Canada",4696.0,4,4281.0,489.0,2022.0,SingleFamily,04/03/2024,2298800.0,49.0524733,-122.2422189,"Verado Court, Eagle Mountain, Abbotsford, Fraser Valley Regional District, British Columbia, V3G 0C8, Canada"
R2855048,5,3,"2332 Mckenzie Rd, Abbotsford, BC, Canada",2308.0,6,5334.0,519.0,2004.0,SingleFamily,03/03/2024,1199900.0,49.0445813,-122.2858752,"2332, McKenzie Road, McCallum, Abbotsford Centre, Abbotsford, Fraser Valley Regional District, British Columbia, V2S 3Z8, Canada"
R2855795,6,3,"2949 Flagman Pl, Abbotsford, BC, Canada",4126.0,0,6252.0,436.0,2010.0,SingleFamily,04/03/2024,1799000.0,49.0558425,-122.4575588,"Flagman Place, West Abbotsford, Abbotsford, Fraser Valley Regional District, British Columbia, V4X 2S8, Canada"
R2857025,4,3,"28028 Layman Ave, Abbotsford, BC, Canada",2970.0,0,9900.0,888.0,1970.0,SingleFamily,07/03/2024,2639900.0,49.0798901,-122.4490822,"Layman Avenue, Abbotsford, Fraser Valley Regional District, British Columbia, V4X 1P1, Canada"
R2848951,2,1,"34740 3rd Ave, Abbotsford, BC, Canada",1450.0,12,4346.0,603.0,1980.0,SingleFamily,11/02/2024,875000.0,49.0048807,-122.2619765,"34740, 3rd Avenue, Huntingdon, Abbotsford, Fraser Valley Regional District, British Columbia, V2S 8B9, Canada"
R2848637,4,2,"1033 York Rd, Abbotsford, BC, Canada",3683.0,0,8719.0,1373.0,1973.0,SingleFamily,08/02/2024,5059000.0,49.0219846,-122.227866,"York Road, Abbotsford, Fraser Valley Regional District, British Columbia, V3G 1Z5, Canada"
R2850021,6,2,"33230 Westbury Ave, Abbotsford, BC, Canada",2194.0,5,4091.0,501.0,1972.0,SingleFamily,13/02/2024,1099950.0,49.0354549,-122.3036155,"33230, Westbury Avenue, Marshall, Mill Lake, Abbotsford, Fraser Valley Regional District, British Columbia, V2S 1C2, Canada"
R2849346,2,2,"201 Mccallum Rd, Abbotsford, BC, Canada",908.0,15,3593.0,1707.0,2020.0,SingleFamily,12/02/2024,1550000.0,49.0330827,-122.2928707,"McCallum Road, UDistrict, Abbotsford, Fraser Valley Regional District, British Columbia, V2S 3M4, Canada"
R2848480,3,2,"2267 Mckenzie Rd, Abbotsford, BC, Canada",1329.0,2,1856.0,564.0,2022.0,Townhouse,07/02/2024,749999.0,49.04308755,-122.28411765,"2267, McKenzie Road, McCallum, Abbotsford Centre, Abbotsford, Fraser Valley Regional District, British Columbia, V2S 0M9, Canada"
R2848471,2,1,"32055 Old Yale Rd, Abbotsford, BC, Canada",1050.0,1,1128.0,304.0,1979.0,Condo,08/02/2024,320000.0,49.0118384,-122.1345217,"Old Yale Road, Abbotsford, Fraser Valley Regional District, British Columbia, V3G 1T7, Canada"
R2835095,3,2,"39464 Wells Line Rd, Abbotsford, BC, Canada",2905.0,10,10505.0,3784.0,1975.0,SingleFamily,26/11/2023,10995000.0,49.0316424,-122.195537,"Wells Line Road, Abbotsford, Fraser Valley Regional District, British Columbia, V3G 2H5, Canada"
R2837305,2,2,"2860 Trethewey St, Abbotsford, BC, Canada",1170.0,2,2263.0,546.0,2017.0,Condo,10/12/2023,639000.0,49.0573351,-122.3268444,"Trethewey Street, Clearbrook, Abbotsford, Fraser Valley Regional District, British Columbia, V2T 3R3, Canada"
R2836625,4,2,"4210 Gladwin Rd, Abbotsford, BC, Canada",2566.0,6,6605.0,816.0,1984.0,SingleFamily,06/12/2023,2095000.0,49.0529748,-122.314946,"Gladwin Road, City Centre, Abbotsford, Fraser Valley Regional District, British Columbia, V2T 4V1, Canada"
R2839045,6,3,"32595 George Ferguson Way, Abbotsford, BC, Canada",1940.0,4,4162.0,608.0,1977.0,SingleFamily,07/01/2024,1180000.0,49.0550353,-122.321233,"32595, George Ferguson Way, City Centre, Abbotsford, Fraser Valley Regional District, British Columbia, V2T 4E4, Canada"
R2836851,6,4,"32588 Peardonville Rd, Abbotsford, BC, Canada",3053.0,5,2899.0,490.0,2021.0,SingleFamily,07/12/2023,1499000.0,49.0452033,-122.3531633,"Peardonville Road, Abbotsford, Fraser Valley Regional District, British Columbia, V2T 6L1, Canada"
R2836427,5,3,"35620 Dina Pl, Abbotsford, BC, Canada",2365.0,4,4284.0,465.0,1998.0,SingleFamily,05/12/2023,1099900.0,49.0404377,-122.2408953,"Dina Place, Abbotsford, Fraser Valley Regional District, British Columbia, V3G 2E3, Canada"
R2838231,4,2,"27625 Gray Ave, Abbotsford, BC, Canada",2000.0,0,5564.0,3700.0,9999.0,SingleFamily,21/12/2023,7400000.0,49.154581,-122.434002,"Gray Avenue, Abbotsford, Fraser Valley Regional District, British Columbia, V4S 1H7, Canada"
R2782675,5,2,"2786 Fairlane St, Abbotsford, BC, Canada",2284.0,6,4586.0,908.0,9999.0,SingleFamily,30/05/2023,2075000.0,49.05258575,-122.3072898244432,"2786, Fairlane Street, City Centre, Abbotsford, Fraser Valley Regional District, British Columbia, V2S 3B6, Canada"
R2779709,5,3,"494 Sumas Way, Abbotsford, BC, Canada",2485.0,10,8482.0,1810.0,1984.0,SingleFamily,24/05/2023,4499000.0,49.01091975,-122.26463054965896,"494, Sumas Way, Huntingdon, Abbotsford, Fraser Valley Regional District, British Columbia, V2S 8E5, Canada"
R2905730,2,2,"9623 Manchester Dr, Burnaby, BC, Canada",969.0,1,1742.0,649.0,1994.0,Condo,14/07/2024,629000.0,49.2471072,-122.89798582508456,"Crystal Manor, 9623, Manchester Drive, Burnaby, Metro Vancouver Regional District, British Columbia, V3N 4P5, Canada"
R2905904,1,1,"2351 Beta Ave, Burnaby, BC, Canada",516.0,0,1695.0,967.0,2020.0,Condo,14/07/2024,499000.0,49.2744334,-122.9974219,"Beta Avenue, Burnaby, Metro Vancouver Regional District, British Columbia, V5C 3V4, Canada"
R2905907,2,2,"2289 Yukon Cres, Burnaby, BC, Canada",837.0,1,1990.0,918.0,2008.0,Condo,14/07/2024,769000.0,49.26416015,-122.99531282303391,"Watercolors, 2289, Yukon Crescent, Burnaby, Metro Vancouver Regional District, British Columbia, V5C 4B4, Canada"
R2905843,7,5,"4536 Midlawn Dr, Burnaby, BC, Canada",4067.0,4,7245.0,688.0,2014.0,SingleFamily,14/07/2024,2799000.0,49.2711011,-122.99854,"Midlawn Drive, Willingdon Heights, Burnaby, Metro Vancouver Regional District, British Columbia, V5C 3Z6, Canada"
R2905610,3,1,"6506 Broadway, Burnaby, BC, Canada",1132.0,0,5259.0,3518.0,1953.0,SingleFamily,14/07/2024,3982500.0,49.2617806,-122.9679218,"Broadway, Burnaby, Metro Vancouver Regional District, British Columbia, V5B 2Z9, Canada"
R2905568,5,3,"6950 Mario Crt, Burnaby, BC, Canada",2695.0,4,5910.0,816.0,1979.0,SingleFamily,14/07/2024,2200000.0,49.2608458,-122.9604547,"Mario Court, Burnaby, Metro Vancouver Regional District, British Columbia, V5A 2S9, Canada"
R2905558,1,1,"6689 Willingdon Ave, Burnaby, BC, Canada",660.0,1,1148.0,681.0,1976.0,Condo,14/07/2024,449900.0,49.2228195,-123.0119313,"Kensington Manor, 6689, Willingdon Avenue, Metrotown, Burnaby, Metro Vancouver Regional District, British Columbia, V5H 2W5, Canada"
R2905965,2,2,"6388 Marlborough Ave, Burnaby, BC, Canada",940.0,1,1654.0,806.0,1992.0,Condo,14/07/2024,758000.0,49.2266525,-122.99118592476036,"Marlborough Place, 6388, Marlborough Avenue, Metrotown, Burnaby, Metro Vancouver Regional District, British Columbia, V5H 4A5, Canada"
R2905516,1,1,"3771 Bartlett Crt, Burnaby, BC, Canada",673.0,1,1074.0,592.0,1976.0,Condo,14/07/2024,399000.0,49.24991545,-122.8989433221208,"The Birch, 3771, Bartlett Court, Sullivan Heights, Burnaby, Metro Vancouver Regional District, British Columbia, V3J 1L6, Canada"
R2905903,2,2,"6461 Telford Ave, Burnaby, BC, Canada",866.0,1,2417.0,1039.0,2014.0,Condo,14/07/2024,899900.0,49.2252537,-123.0039474,"Pizza Garden, 6461, Telford Avenue, Metrotown, Burnaby, Metro Vancouver Regional District, British Columbia, V5H 4L7, Canada"
R2905582,3,2,"3833 Evergreen Pl, Burnaby, BC, Canada",950.0,1,2322.0,1021.0,2023.0,Condo,14/07/2024,970000.0,49.2495959,-122.8938862,"Evergreen Place, The City of Lougheed Neighbourhood One, Burnaby, Metro Vancouver Regional District, British Columbia, V3J 0L3, Canada"
R2906049,2,2,"6000 Mckay Ave, Burnaby, BC, Canada",800.0,1,2555.0,1312.0,2022.0,Condo,14/07/2024,1050000.0,49.2290292,-123.00267534718694,"Station Square Tower 5, 6000, McKay Avenue, Metrotown, Burnaby, Metro Vancouver Regional District, British Columbia, V5H 4V8, Canada"
R2905992,4,2,"9133 Government St, Burnaby, BC, Canada",2009.0,2,3500.0,671.0,2007.0,Townhouse,14/07/2024,1350000.0,49.2460809,-122.9006554,"Government Street, Burnaby, Metro Vancouver Regional District, British Columbia, V3N 4R6, Canada"
R2905988,5,2,"4381 Huxley Ave, Burnaby, BC, Canada",2452.0,3,6189.0,978.0,1958.0,SingleFamily,14/07/2024,2399000.0,49.2450717,-123.0073397405912,"4381, Huxley Avenue, Garden Village, Burnaby, Metro Vancouver Regional District, British Columbia, V5G 4M1, Canada"
R2905025,2,2,"9283 Government St, Burnaby, BC, Canada",955.0,1,1788.0,784.0,2007.0,Condo,10/07/2024,749000.0,49.2460809,-122.9006554,"Government Street, Burnaby, Metro Vancouver Regional District, British Columbia, V3N 4R6, Canada"
R2904453,3,3,"4720 Lougheed Highway, Burnaby, BC, Canada",1259.0,2,3620.0,1151.0,2022.0,Condo,10/07/2024,1449900.0,49.2657159,-122.9961288,"4720, Lougheed Highway, Burnaby, Metro Vancouver Regional District, British Columbia, V5C 0M8, Canada"
R2905245,2,2,"4711 Hazel St, Burnaby, BC, Canada",955.0,0,2723.0,1317.0,2022.0,Condo,11/07/2024,1258000.0,49.2292835,-122.99803340561468,"Sussex, 4711, Hazel Street, Metrotown, Burnaby, Metro Vancouver Regional District, British Columbia, V5H 2C3, Canada"
R2905074,1,1,"3770 Manor St, Burnaby, BC, Canada",684.0,1,1344.0,804.0,1992.0,Condo,10/07/2024,550000.0,49.2572827,-123.0199209,"Manor Street, West Central Valley, Burnaby, Metro Vancouver Regional District, British Columbia, V5M 3Z9, Canada"
R2905075,1,1,"6000 Mckay Ave, Burnaby, BC, Canada",525.0,1,1855.0,1333.0,2022.0,Condo,10/07/2024,700000.0,49.2290292,-123.00267534718694,"Station Square Tower 5, 6000, McKay Avenue, Metrotown, Burnaby, Metro Vancouver Regional District, British Columbia, V5H 4V8, Canada"
R2905250,1,1,"4880 Lougheed Highway, Burnaby, BC, Canada",568.0,1,1526.0,1054.0,2024.0,Condo,11/07/2024,599000.0,49.2658175,-123.0182028,"Lougheed Highway, West Central Valley, Burnaby, Metro Vancouver Regional District, British Columbia, V5C 6N4, Canada"
R2904908,2,2,"9868 Cameron St, Burnaby, BC, Canada",857.0,1,1885.0,815.0,2009.0,Condo,10/07/2024,699000.0,49.25305315,-122.8945346,"Silhouette II, 9868, Cameron Street, Sullivan Heights, Burnaby, Metro Vancouver Regional District, British Columbia, V3J 0A0, Canada"
R2905393,2,2,"2311 Beta Ave, Burnaby, BC, Canada",788.0,1,2190.0,847.0,2020.0,Condo,11/07/2024,668000.0,49.2744334,-122.9974219,"Beta Avenue, Burnaby, Metro Vancouver Regional District, British Columbia, V5C 3V4, Canada"
R2904965,2,2,"4880 Lougheed Highway, Burnaby, BC, Canada",745.0,1,2500.0,1206.0,2024.0,Condo,09/07/2024,899000.0,49.2658175,-123.0182028,"Lougheed Highway, West Central Valley, Burnaby, Metro Vancouver Regional District, British Columbia, V5C 6N4, Canada"
R2904249,2,1,"8725 University Cres, Burnaby, BC, Canada",752.0,1,1671.0,797.0,2022.0,Condo,09/07/2024,599900.0,49.27952095,-122.9094578085789,"8725, University Crescent, UniverCity, Burnaby, Metro Vancouver Regional District, British Columbia, V5A 4X6, Canada"
R2904188,2,1,"5450 Empire Dr, Burnaby, BC, Canada",924.0,1,1215.0,573.0,1974.0,Condo,09/07/2024,530000.0,49.28067735,-122.98482916167684,"Empire Place, 5450, Empire Drive, Capitol Hill, Burnaby, Metro Vancouver Regional District, British Columbia, V5B 1R1, Canada"
R2905043,1,1,"8940 University Cres, Burnaby, BC, Canada",483.0,1,1176.0,931.0,2021.0,Condo,09/07/2024,450000.0,49.2804862,-122.9088532,"8940, University Crescent, UniverCity, Burnaby, Metro Vancouver Regional District, British Columbia, V5A 4X6, Canada"
R2903509,5,3,"5089 Carson St, Burnaby, BC, Canada",2305.0,3,4942.0,819.0,2002.0,MultiFamily,09/07/2024,1888888.0,49.2099192,-122.999788,"Carson Street, Fairways at Nelson, Burnaby, Metro Vancouver Regional District, British Columbia, V5J 0B6, Canada"
R2904644,4,3,"5409 Patrick St, Burnaby, BC, Canada",1860.0,4,5412.0,1015.0,1953.0,SingleFamily,09/07/2024,1888000.0,49.2087662,-122.98551811722372,"5409, Patrick Street, Fairways at Nelson, Burnaby, Metro Vancouver Regional District, British Columbia, V5J 4K0, Canada"
R2904445,1,1,"5788 Sidley St, Burnaby, BC, Canada",612.0,1,1454.0,913.0,2012.0,Condo,09/07/2024,559000.0,49.2174921,-122.9907724,"Sidley Street, South Slope, Metrotown, Burnaby, Metro Vancouver Regional District, British Columbia, V5J 4K0, Canada"
R2904079,2,2,"4132 Halifax St, Burnaby, BC, Canada",1077.0,4,2785.0,927.0,2005.0,Condo,08/07/2024,998800.0,49.26750885,-123.01289188400102,"Marquis Grande, 4132, Halifax Street, West Central Valley, Burnaby, Metro Vancouver Regional District, British Columbia, V5C 6V1, Canada"
R2904085,2,2,"5833 Wilson Ave, Burnaby, BC, Canada",977.0,1,1813.0,715.0,1995.0,Condo,08/07/2024,699000.0,49.232113850000005,-123.00758671671696,"Paramount, 5833, Wilson Avenue, Metrotown, Burnaby, Metro Vancouver Regional District, British Columbia, V5H 2A1, Canada"
R2904929,4,2,"7388 Macpherson Ave, Burnaby, BC, Canada",1569.0,2,2945.0,849.0,2006.0,Townhouse,08/07/2024,1332800.0,49.21693295,-122.9824179,"7388, MacPherson Avenue, Metrotown, Burnaby, Metro Vancouver Regional District, British Columbia, V5J 0A1, Canada"
R2903659,2,2,"6893 Prenter St, Burnaby, BC, Canada",801.0,2,1706.0,872.0,1998.0,Condo,08/07/2024,699000.0,49.2167516,-122.9760039,"Prenter Street, Burnaby, Metro Vancouver Regional District, British Columbia, V5J 1K4, Canada"
R2903606,5,3,"1135 Yorston Crt, Burnaby, BC, Canada",2293.0,1,5350.0,811.0,2017.0,MultiFamily,08/07/2024,1859900.0,49.2737113,-122.9521104,"Yorston Court, Burnaby, Metro Vancouver Regional District, British Columbia, V5A 2N9, Canada"
R2904067,2,2,"6168 Wilson Ave, Burnaby, BC, Canada",1155.0,2,2669.0,778.0,2012.0,Condo,08/07/2024,899000.0,49.22793059999999,-123.01035569391786,"Jewel II, 6168, Wilson Avenue, Metrotown, Burnaby, Metro Vancouver Regional District, British Columbia, V5H 4V6, Canada"
R2903994,2,2,"368 Ellesmere Ave, Burnaby, BC, Canada",947.0,1,2181.0,842.0,2009.0,Townhouse,08/07/2024,798000.0,49.2684955,-122.9824676,"Ellesmere Avenue, Burnaby, Metro Vancouver Regional District, British Columbia, V5B 3V8, Canada"
R2903948,2,2,"6438 Byrnepark Dr, Burnaby, BC, Canada",861.0,1,1650.0,870.0,2023.0,Condo,08/07/2024,749900.0,49.205771,-122.9684303,"Byrnepark Drive, Edmonds, Burnaby, Metro Vancouver Regional District, British Columbia, V3N 4Z4, Canada"
R2903559,0,1,"9339 University Cres, Burnaby, BC, Canada",408.0,1,873.0,913.0,2004.0,Condo,07/07/2024,372800.0,49.27734315,-122.90571481806332,"9339, University Crescent, UniverCity, Burnaby, Metro Vancouver Regional District, British Columbia, V5A 0A1, Canada"
R2904140,3,2,"4004 Parker St, Burnaby, BC, Canada",2567.0,2,5107.0,739.0,1922.0,SingleFamily,07/07/2024,1899000.0,49.275454800000006,-123.0160577749065,"4004, Parker Street, Willingdon Heights, Burnaby, Metro Vancouver Regional District, British Columbia, V5C 3J1, Canada"
R2903025,2,2,"9888 Cameron St, Burnaby, BC, Canada",978.0,1,1994.0,714.0,2008.0,Condo,07/07/2024,699000.0,49.25220325,-122.89454015,"Silhouette I, 9888, Cameron Street, Sullivan Heights, Burnaby, Metro Vancouver Regional District, British Columbia, V3J 0A0, Canada"
R2903049,8,5,"6627 Strathmore Ave, Burnaby, BC, Canada",4161.0,0,6725.0,622.0,1997.0,SingleFamily,07/07/2024,2590000.0,49.22513595,-122.9541292982299,"6627, Strathmore Avenue, Middlegate, Burnaby, Metro Vancouver Regional District, British Columbia, V5E 0A8, Canada"
R2903650,5,3,"5644 Patrick St, Burnaby, BC, Canada",2578.0,1,5309.0,686.0,1954.0,SingleFamily,07/07/2024,1769000.0,49.2085498,-122.9902754,"Patrick Street, Fairways at Nelson, Burnaby, Metro Vancouver Regional District, British Columbia, V5J 4K0, Canada"
R2903334,3,2,"5058 Savile Row, Burnaby, BC, Canada",1253.0,2,2938.0,1035.0,2019.0,Townhouse,07/07/2024,1298000.0,49.2397965,-122.96205,"Savile Row, Buckingham Heights, Burnaby, Metro Vancouver Regional District, British Columbia, V5E 3N1, Canada"
R2903813,2,2,"2311 Beta Ave, Burnaby, BC, Canada",763.0,1,2302.0,1047.0,2020.0,Condo,07/07/2024,799000.0,49.2744334,-122.9974219,"Beta Avenue, Burnaby, Metro Vancouver Regional District, British Columbia, V5C 3V4, Canada"
R2903240,2,2,"6878 Southpoint Dr, Burnaby, BC, Canada",1011.0,1,2219.0,820.0,2006.0,Townhouse,07/07/2024,829900.0,49.2087767,-122.9581938,"6878, Southpoint Drive, Edmonds, Burnaby, Metro Vancouver Regional District, British Columbia, V3N 5A4, Canada"
R2903256,4,2,"101 Sea Ave N, Burnaby, BC, Canada",1558.0,2,5027.0,1007.0,1946.0,SingleFamily,07/07/2024,1570000.0,49.285595,-122.9793972,"North Sea Avenue, Capitol Hill, Burnaby, Metro Vancouver Regional District, British Columbia, V5B 1M3, Canada"
R2903251,2,2,"2311 Beta Ave, Burnaby, BC, Canada",797.0,1,2390.0,1026.0,2021.0,Condo,07/07/2024,818000.0,49.2744334,-122.9974219,"Beta Avenue, Burnaby, Metro Vancouver Regional District, British Columbia, V5C 3V4, Canada"
R2903778,9,7,"1923 Sherlock Ave, Burnaby, BC, Canada",4631.0,10,12001.0,753.0,2014.0,SingleFamily,07/07/2024,3490000.0,49.2716533,-122.956262,"Sherlock Avenue, Burnaby, Metro Vancouver Regional District, British Columbia, V5A 2N9, Canada"
R2902991,4,3,"4078 Nithsdale St, Burnaby, BC, Canada",2016.0,3,5451.0,967.0,2020.0,MultiFamily,07/07/2024,1950000.0,49.2507103,-123.01384,"4078,4080, Nithsdale Street, Cascade Heights, Burnaby, Metro Vancouver Regional District, British Columbia, V5G 0C3, Canada"
R2903464,2,2,"5155 Watling St, Burnaby, BC, Canada",885.0,1,1892.0,857.0,2007.0,Townhouse,07/07/2024,759000.0,49.2165945,-123.0228416,"Watling Street, Suncrest, Burnaby, Metro Vancouver Regional District, British Columbia, V5J 1Z3, Canada"
R2904290,2,2,"2232 Douglas Rd, Burnaby, BC, Canada",896.0,2,2210.0,952.0,2012.0,Condo,07/07/2024,853000.0,49.2649784,-122.9920798,"Douglas Road, Burnaby, Metro Vancouver Regional District, British Columbia, V5C 0C6, Canada"
R2904000,4,3,"7220 Union St, Burnaby, BC, Canada",3151.0,2,6643.0,824.0,1977.0,SingleFamily,07/07/2024,2599000.0,49.27751395,-122.95258347025816,"7220, Union Street, Burnaby, Metro Vancouver Regional District, British Columbia, V5A 1C9, Canada"
R2902982,1,1,"4310 Hastings St, Burnaby, BC, Canada",618.0,1,1555.0,964.0,2011.0,Condo,07/07/2024,596000.0,49.2801848,-122.9911119,"Hastings Street, Burnaby, Metro Vancouver Regional District, British Columbia, V5B 1P6, Canada"
R2903599,3,2,"7248 Stride Ave, Burnaby, BC, Canada",1197.0,0,3166.0,834.0,2011.0,MultiFamily,06/07/2024,999000.0,49.21481305,-122.94840980624494,"7248, Stride Avenue, Burnaby, Metro Vancouver Regional District, British Columbia, V3N 3A5, Canada"
R2902076,1,1,"2008 Rosser Ave, Burnaby, BC, Canada",649.0,1,1815.0,1046.0,2015.0,Condo,03/07/2024,679000.0,49.2658306,-123.0057688,"2008, Rosser Avenue, West Central Valley, Burnaby, Metro Vancouver Regional District, British Columbia, V5C 6R6, Canada"
R2902351,2,2,"1888 Gilmore Ave, Burnaby, BC, Canada",687.0,1,2287.0,1205.0,2020.0,Condo,03/07/2024,828000.0,49.26776,-123.01384403052823,"1888, Gilmore Avenue, West Central Valley, Burnaby, Metro Vancouver Regional District, British Columbia, V5C 3X1, Canada"
R2902154,2,2,"4510 Halifax Way, Burnaby, BC, Canada",921.0,1,2742.0,1084.0,2019.0,Condo,03/07/2024,999000.0,49.266789450000005,-123.00088019896364,"Brentwood Two, 4510, Halifax Way, Willingdon Heights, Burnaby, Metro Vancouver Regional District, British Columbia, V5C 0B3, Canada"
R2902073,2,2,"6638 Dunblane Ave, Burnaby, BC, Canada",866.0,1,2423.0,1025.0,2018.0,Condo,03/07/2024,888000.0,49.22335555,-122.99236472507584,"Midori, 6638, Dunblane Avenue, Metrotown, Burnaby, Metro Vancouver Regional District, British Columbia, V5H 3L9, Canada"
R2902307,4,3,"5775 Hardwick St, Burnaby, BC, Canada",1280.0,2,5844.0,1092.0,2023.0,MultiFamily,03/07/2024,1399000.0,49.2517639,-122.978283,"Hardwick Street, Burnaby, Metro Vancouver Regional District, British Columbia, V5G 1R3, Canada"
R2902158,1,1,"3755 Bartlett Crt, Burnaby, BC, Canada",729.0,1,1084.0,589.0,1976.0,Condo,03/07/2024,429800.0,49.2504608,-122.89922495,"The Oak, 3755, Bartlett Court, Sullivan Heights, Burnaby, Metro Vancouver Regional District, British Columbia, V3J 1L6, Canada"
R2901930,2,2,"4650 Brentwood Blvd, Burnaby, BC, Canada",874.0,1,2924.0,1221.0,2021.0,Condo,03/07/2024,1068000.0,49.2680282,-123.0016393,"Brentwood Boulevard, Willingdon Heights, Burnaby, Metro Vancouver Regional District, British Columbia, V5C 3Z6, Canada"
R2901857,2,2,"9868 Cameron St, Burnaby, BC, Canada",955.0,1,1967.0,785.0,2009.0,Condo,02/07/2024,750000.0,49.25305315,-122.8945346,"Silhouette II, 9868, Cameron Street, Sullivan Heights, Burnaby, Metro Vancouver Regional District, British Columbia, V3J 0A0, Canada"
R2901641,2,2,"2351 Beta Ave, Burnaby, BC, Canada",761.0,1,2313.0,1090.0,2020.0,Condo,02/07/2024,830000.0,49.2744334,-122.9974219,"Beta Avenue, Burnaby, Metro Vancouver Regional District, British Columbia, V5C 3V4, Canada"
R2901779,1,1,"1955 Alpha Way, Burnaby, BC, Canada",535.0,1,1630.0,1173.0,2020.0,Condo,02/07/2024,628000.0,49.2668245,-123.0003777,"Alpha Way, Willingdon Heights, Burnaby, Metro Vancouver Regional District, British Columbia, V5C 2A0, Canada"
R2901397,7,2,"5602 Claude Ave, Burnaby, BC, Canada",2329.0,2,3752.0,613.0,1979.0,MultiFamily,02/07/2024,1428000.0,49.2407118,-122.9626213,"Claude Avenue, Buckingham Heights, Burnaby, Metro Vancouver Regional District, British Columbia, V5E 3N1, Canada"
R2901831,2,2,"7325 Arcola St, Burnaby, BC, Canada",961.0,1,2131.0,852.0,2009.0,Condo,02/07/2024,818800.0,49.21954095,-122.95216819673568,"Esprit 2, 7325, Arcola Street, Edmonds, Burnaby, Metro Vancouver Regional District, British Columbia, V5E 0A8, Canada"
R2901973,2,2,"4650 Brentwood Blvd, Burnaby, BC, Canada",777.0,1,2518.0,1078.0,2021.0,Condo,02/07/2024,838000.0,49.2680282,-123.0016393,"Brentwood Boulevard, Willingdon Heights, Burnaby, Metro Vancouver Regional District, British Columbia, V5C 3Z6, Canada"
R2901601,7,6,"6691 Waltham Ave, Burnaby, BC, Canada",4479.0,4,6665.0,756.0,2024.0,SingleFamily,02/07/2024,3388000.0,49.21986,-122.976146,"Waltham Avenue, Burnaby, Metro Vancouver Regional District, British Columbia, V5J 1H1, Canada"
R2901955,2,2,"6699 Dunblane Ave, Burnaby, BC, Canada",760.0,1,2777.0,1250.0,2021.0,Condo,02/07/2024,950000.0,49.22227095,-122.99319373261515,"Polaris at Metrotown, 6699, Dunblane Avenue, Metrotown, Burnaby, Metro Vancouver Regional District, British Columbia, V5H 3K5, Canada"
R2902113,1,1,"2288 Alpha Ave, Burnaby, BC, Canada",624.0,1,1832.0,1118.0,2021.0,Condo,02/07/2024,698000.0,49.26359485,-122.99991035,"2288, Alpha Avenue, Burnaby, Metro Vancouver Regional District, British Columbia, V5C 5K7, Canada"
R2901285,5,3,"7749 Lee St, Burnaby, BC, Canada",2723.0,3,5414.0,789.0,1955.0,SingleFamily,02/07/2024,2150000.0,49.23481975,-122.90026955887996,"7749, Lee Street, Massey Victory Heights, Burnaby, Metro Vancouver Regional District, British Columbia, V3N 4C3, Canada"
R2901540,2,2,"3399 Noel Dr, Burnaby, BC, Canada",903.0,1,2183.0,926.0,2017.0,Condo,02/07/2024,837000.0,49.25404605,-122.90522936900469,"3399, Noel Drive, Sullivan Heights, Burnaby, Metro Vancouver Regional District, British Columbia, V3J 1M7, Canada"
R2900894,2,2,"3980 Carrigan Crt, Burnaby, BC, Canada",922.0,1,1536.0,724.0,1985.0,Condo,01/07/2024,668000.0,49.248806,-122.9011464,"Discovery Place I, 3980, Carrigan Court, Burnaby, Metro Vancouver Regional District, British Columbia, V3N 4H4, Canada"
R2901416,3,1,"4457 Watling St, Burnaby, BC, Canada",1220.0,2,5669.0,1638.0,1957.0,SingleFamily,01/07/2024,1999000.0,49.216848,-123.0038228,"4457, Watling Street, South Slope, Metrotown, Burnaby, Metro Vancouver Regional District, British Columbia, V5J 1C4, Canada"
R2901386,14,6,"6293 Burns St, Burnaby, BC, Canada",5315.0,8,7316.0,592.0,1968.0,MultiFamily,01/07/2024,3150000.0,49.22609405,-122.9723131019399,"6291,6293, Burns Street, Burnaby, Metro Vancouver Regional District, British Columbia, V5J 1H1, Canada"
R2900732,2,2,"9168 Slopes Mews, Burnaby, BC, Canada",957.0,1,1791.0,709.0,2016.0,Condo,01/07/2024,679000.0,49.27696105,-122.90865194389188,"9168, Slopes Mews, UniverCity, Burnaby, Metro Vancouver Regional District, British Columbia, V5A 4Y0, Canada"
R2900549,5,4,"7208 Hewitt St, Burnaby, BC, Canada",3798.0,6,6436.0,657.0,1975.0,SingleFamily,01/07/2024,2499000.0,49.2760342,-122.95268948439492,"7208, Hewitt Street, Burnaby, Metro Vancouver Regional District, British Columbia, V5A 2N9, Canada"
R2900857,4,2,"4712 Albert St, Burnaby, BC, Canada",2372.0,2,5273.0,885.0,1990.0,SingleFamily,01/07/2024,2100000.0,49.2819845,-123.0144104,"Albert Street, Burnaby Heights, Burnaby, Metro Vancouver Regional District, British Columbia, V5C 2J3, Canada"
R2902016,1,1,"6699 Dunblane Ave, Burnaby, BC, Canada",464.0,1,1846.0,1400.0,2021.0,Condo,01/07/2024,650000.0,49.22227095,-122.99319373261515,"Polaris at Metrotown, 6699, Dunblane Avenue, Metrotown, Burnaby, Metro Vancouver Regional District, British Columbia, V5H 3K5, Canada"
R2900604,3,1,"7488 Southwynde Ave, Burnaby, BC, Canada",1113.0,2,2327.0,861.0,2003.0,Townhouse,01/07/2024,959000.0,49.2076711,-122.9653077,"Southwynde Avenue, Edmonds, Burnaby, Metro Vancouver Regional District, British Columbia, V3N 4Z4, Canada"
R2902309,2,2,"4508 Hazel St, Burnaby, BC, Canada",918.0,0,2649.0,1089.0,2015.0,Condo,01/07/2024,999900.0,49.2300707,-123.0013648,"Hazel Street, Metrotown, Burnaby, Metro Vancouver Regional District, British Columbia, V5H 4R2, Canada"
R2900570,7,4,"4012 Dundas St, Burnaby, BC, Canada",3269.0,2,7207.0,802.0,1993.0,SingleFamily,01/07/2024,2625000.0,49.2845057,-123.01586677470851,"4012, Dundas Street, Burnaby Heights, Burnaby, Metro Vancouver Regional District, British Columbia, V5C 4P5, Canada"
R2900738,2,2,"1888 Gilmore Ave, Burnaby, BC, Canada",882.0,1,2692.0,1105.0,2021.0,Condo,01/07/2024,975000.0,49.26776,-123.01384403052823,"1888, Gilmore Avenue, West Central Valley, Burnaby, Metro Vancouver Regional District, British Columbia, V5C 3X1, Canada"
R2900670,2,2,"5280 Oakmount Cres, Burnaby, BC, Canada",1218.0,2,2415.0,779.0,1995.0,Condo,01/07/2024,950000.0,49.2333098,-122.9880547,"Oakmount Crescent, Metrotown, Burnaby, Metro Vancouver Regional District, British Columbia, V5H 2X5, Canada"
R2902362,2,2,"8761 University Cres, Burnaby, BC, Canada",812.0,1,2186.0,933.0,2022.0,Condo,01/07/2024,758000.0,49.27978675,-122.9088308426725,"8761, University Crescent, UniverCity, Burnaby, Metro Vancouver Regional District, British Columbia, V5A 4X6, Canada"
R2900652,3,2,"6699 Dunblane Ave, Burnaby, BC, Canada",926.0,1,2134.0,1166.0,2021.0,Condo,01/07/2024,1080000.0,49.22227095,-122.99319373261515,"Polaris at Metrotown, 6699, Dunblane Avenue, Metrotown, Burnaby, Metro Vancouver Regional District, British Columbia, V5H 3K5, Canada"
R2900389,1,1,"6098 Station St, Burnaby, BC, Canada",686.0,1,2231.0,1090.0,2018.0,Condo,30/06/2024,748000.0,49.2287486,-123.0010452,"Station Street, Station Square, Metrotown, Burnaby, Metro Vancouver Regional District, British Columbia, V5H 2B3, Canada"
R2900922,2,2,"7358 Edmonds St, Burnaby, BC, Canada",850.0,1,2209.0,904.0,2020.0,Condo,29/06/2024,769000.0,49.21891355,-122.95004660648522,"Kings Crossing Two, 7358, Edmonds Street, Edmonds, Burnaby, Metro Vancouver Regional District, British Columbia, V5E 0A8, Canada"
R2901126,2,2,"6080 Mckay Ave, Burnaby, BC, Canada",1278.0,2,4039.0,1314.0,2021.0,Condo,30/06/2024,1680000.0,49.22832805,-123.00353734144927,"Station Square Tower 4, 6080, McKay Avenue, Metrotown, Burnaby, Metro Vancouver Regional District, British Columbia, V5H 2W7, Canada"
R2901406,2,1,"5932 Patterson Ave, Burnaby, BC, Canada",878.0,1,1556.0,717.0,1979.0,Condo,30/06/2024,629900.0,49.2304056,-123.01229513906368,"5932, Patterson Avenue, Metrotown, Burnaby, Metro Vancouver Regional District, British Columbia, V5H 4C8, Canada"
R2901136,2,2,"4723 Dawson St, Burnaby, BC, Canada",1045.0,2,2325.0,822.0,2007.0,Condo,30/06/2024,860000.0,49.2644492,-123.007475,"Dawson Street, West Central Valley, Burnaby, Metro Vancouver Regional District, British Columbia, V5C 4B6, Canada"
R2900186,2,2,"4458 Beresford St, Burnaby, BC, Canada",853.0,1,2507.0,1266.0,2021.0,Condo,27/06/2024,1080000.0,49.2180533,-122.9794399,"Beresford Street, Metrotown, Burnaby, Metro Vancouver Regional District, British Columbia, V5J 1J6, Canada"
R2900022,3,2,"2801 Ellerslie Ave, Burnaby, BC, Canada",1980.0,2,3239.0,635.0,1990.0,Townhouse,26/06/2024,1258000.0,49.2599691,-122.9577844,"Ellerslie Avenue, Burnaby, Metro Vancouver Regional District, British Columbia, V5A 2S9, Canada"
R2900089,2,2,"9009 Cornerstone Mews, Burnaby, BC, Canada",837.0,1,1631.0,750.0,2009.0,Condo,26/06/2024,628000.0,49.27767135,-122.91003580081336,"The Hub, 9009, Cornerstone Mews, UniverCity, Burnaby, Metro Vancouver Regional District, British Columbia, V5A 4Y0, Canada"
R2899897,2,2,"9188 University Cres, Burnaby, BC, Canada",895.0,1,1497.0,702.0,2009.0,Condo,26/06/2024,629000.0,49.280039900000006,-122.90659470647076,"9188, University Crescent, UniverCity, Burnaby, Metro Vancouver Regional District, British Columbia, V5A 0A1, Canada"
R2899677,1,1,"9393 Tower Rd, Burnaby, BC, Canada",590.0,1,1387.0,867.0,2016.0,Condo,26/06/2024,512000.0,49.27811575,-122.90941220355286,"9393, Tower Road, UniverCity, Burnaby, Metro Vancouver Regional District, British Columbia, V5A 4Y0, Canada"
R2898972,2,1,"6930 Balmoral St, Burnaby, BC, Canada",985.0,2,1864.0,688.0,1995.0,Townhouse,26/06/2024,678013.0,49.2199967,-122.96058032218184,"6930, Balmoral Street, Edmonds, Burnaby, Metro Vancouver Regional District, British Columbia, V5E 1J3, Canada"
R2899768,4,3,"7501 Cumberland St, Burnaby, BC, Canada",1812.0,2,3108.0,799.0,1993.0,Townhouse,26/06/2024,1449000.0,49.2329631,-122.9202318,"7501, Cumberland Street, Burnaby, Metro Vancouver Regional District, British Columbia, V3N 3X5, Canada"
R2899193,2,1,"1955 Woodway Pl, Burnaby, BC, Canada",769.0,1,1250.0,648.0,1979.0,Condo,25/06/2024,499000.0,49.26629875,-122.99149306855884,"Douglas View, 1955, Woodway Place, Burnaby, Metro Vancouver Regional District, British Columbia, V5B 3G2, Canada"
R2899448,2,2,"4485 Skyline Dr, Burnaby, BC, Canada",827.0,2,2516.0,1255.0,2017.0,Condo,25/06/2024,1038000.0,49.2655574,-123.0046471,"Skyline Drive, West Central Valley, Burnaby, Metro Vancouver Regional District, British Columbia, V5C 0H6, Canada"
R2899932,2,2,"4730 Lougheed Highway, Burnaby, BC, Canada",998.0,1,3018.0,1282.0,2023.0,Condo,25/06/2024,1280000.0,49.2658175,-123.0182028,"Lougheed Highway, West Central Valley, Burnaby, Metro Vancouver Regional District, British Columbia, V5C 6N4, Canada"
R2899564,1,1,"7303 Noble Lane, Burnaby, BC, Canada",565.0,1,1640.0,1157.0,2019.0,Condo,25/06/2024,653800.0,49.21933395,-122.94926305517023,"Kings Crossing Three, 7303, Noble Lane, Edmonds, Burnaby, Metro Vancouver Regional District, British Columbia, V3N 3A5, Canada"
R2899006,2,2,"2200 Douglas Rd, Burnaby, BC, Canada",1095.0,2,2147.0,866.0,2011.0,Condo,25/06/2024,949000.0,49.26445785,-122.9894266271966,"Affinity I, 2200, Douglas Road, Burnaby, Metro Vancouver Regional District, British Columbia, V5C 5A9, Canada"
R2899323,1,1,"5355 Lane St, Burnaby, BC, Canada",476.0,1,1396.0,1237.0,2020.0,Condo,25/06/2024,588889.0,49.2227752,-122.986316319372,"5355, Lane Street, Metrotown, Burnaby, Metro Vancouver Regional District, British Columbia, V5H 3Z6, Canada"
R2899912,2,2,"6283 Kingsway, Burnaby, BC, Canada",743.0,2,1841.0,874.0,2018.0,Condo,24/06/2024,650000.0,49.2212457,-122.9772183,"Kingsway, Burnaby, Metro Vancouver Regional District, British Columbia, V5J 1H2, Canada"
R2899337,5,4,"5520 Frances St, Burnaby, BC, Canada",3773.0,4,7226.0,715.0,1979.0,SingleFamily,25/06/2024,2698000.0,49.27884345,-122.98288791411738,"5520, Frances Street, Burnaby, Metro Vancouver Regional District, British Columbia, V5B 1T7, Canada"
R2898359,1,1,"6893 Prenter St, Burnaby, BC, Canada",661.0,1,1443.0,906.0,1998.0,Condo,23/06/2024,599000.0,49.2167516,-122.9760039,"Prenter Street, Burnaby, Metro Vancouver Regional District, British Columbia, V5J 1K4, Canada"
R2898625,2,1,"3970 Carrigan Crt, Burnaby, BC, Canada",898.0,1,1509.0,751.0,1987.0,Condo,23/06/2024,674900.0,49.249229150000005,-122.90027595,"3970, Carrigan Court, Burnaby, Metro Vancouver Regional District, British Columbia, V3N 4H4, Canada"
R2898937,6,5,"7761 Kerrywood Cres, Burnaby, BC, Canada",5323.0,6,10102.0,805.0,2018.0,SingleFamily,23/06/2024,4288000.0,49.2487634,-122.9405233,"Kerrywood Crescent, Burnaby, Metro Vancouver Regional District, British Columbia, V5A 2H4, Canada"
R2898374,1,1,"6000 Mckay Ave, Burnaby, BC, Canada",525.0,1,1757.0,1367.0,2022.0,Condo,23/06/2024,718000.0,49.2290292,-123.00267534718694,"Station Square Tower 5, 6000, McKay Avenue, Metrotown, Burnaby, Metro Vancouver Regional District, British Columbia, V5H 4V8, Canada"
R2898927,5,2,"7910 Burnfield Cres, Burnaby, BC, Canada",2973.0,0,5559.0,715.0,1968.0,SingleFamily,23/06/2024,2128000.0,49.2359205,-122.948632735654,"7910, Burnfield Crescent, Burnaby, Metro Vancouver Regional District, British Columbia, V5E 3M9, Canada"
R2898386,2,2,"3421 Curle Ave, Burnaby, BC, Canada",1059.0,1,1835.0,755.0,1986.0,Condo,23/06/2024,799900.0,49.2537366,-123.015550025035,"3421, Curle Avenue, Discovery Park, Burnaby, Metro Vancouver Regional District, British Columbia, V5G 0C3, Canada"
R2899746,2,1,"6000 Mckay Ave, Burnaby, BC, Canada",675.0,1,2193.0,1285.0,2022.0,Condo,23/06/2024,868000.0,49.2290292,-123.00267534718694,"Station Square Tower 5, 6000, McKay Avenue, Metrotown, Burnaby, Metro Vancouver Regional District, British Columbia, V5H 4V8, Canada"
R2898568,1,1,"4118 Dawson St, Burnaby, BC, Canada",635.0,1,1584.0,927.0,2006.0,Condo,23/06/2024,589000.0,49.26411375,-123.01371920125786,"Tandem A, 4118, Dawson Street, West Central Valley, Burnaby, Metro Vancouver Regional District, British Columbia, V5C 0A4, Canada"
R2898505,6,3,"5465 Tye Crt, Burnaby, BC, Canada",3922.0,3,6804.0,637.0,1970.0,SingleFamily,23/06/2024,2499000.0,49.2712975,-122.9836447,"Tye Court, Burnaby, Metro Vancouver Regional District, British Columbia, V5B 3V8, Canada"
R2899127,1,1,"6088 Willingdon Ave, Burnaby, BC, Canada",792.0,1,1626.0,806.0,1999.0,Condo,23/06/2024,639000.0,49.2290042,-123.0054102,"Grand Crystal Seafood, 6088, Willingdon Avenue, Metrotown, Burnaby, Metro Vancouver Regional District, British Columbia, V5H 4V3, Canada"
R2898061,11,7,"1605 Sherlock Ave, Burnaby, BC, Canada",4801.0,3,5642.0,832.0,2024.0,SingleFamily,23/06/2024,3998000.0,49.2665456,-122.9564469,"Sherlock Avenue, Burnaby, Metro Vancouver Regional District, British Columbia, V5A 1P1, Canada"
R2899515,1,0,"4711 Hazel St, Burnaby, BC, Canada",521.0,1,1660.0,1353.0,2022.0,Condo,23/06/2024,705000.0,49.2292835,-122.99803340561468,"Sussex, 4711, Hazel Street, Metrotown, Burnaby, Metro Vancouver Regional District, British Columbia, V5H 2C3, Canada"
R2899038,2,2,"7377 14Th Ave, Burnaby, BC, Canada",811.0,2,1959.0,985.0,2013.0,Condo,23/06/2024,799000.0,49.21636495,-122.94358506654449,"Vibe, 7377, 14th Avenue, Edmonds, Burnaby, Metro Vancouver Regional District, British Columbia, V3N 4Z7, Canada"
R2899520,1,1,"4900 Lennox Lane, Burnaby, BC, Canada",550.0,1,1982.0,1180.0,2017.0,Condo,23/06/2024,649000.0,49.22323405,-122.99375134228724,"The Park Metrotown, 4900, Lennox Lane, The Met, Metrotown, Burnaby, Metro Vancouver Regional District, British Columbia, V5H 0G9, Canada"
